stop_lat,wheelchair_boarding,stop_code,stop_lon,stop_timezone,stop_url,parent_station,stop_desc,stop_name,location_type,stop_id,zone_id
36.187775,,DOMMETEN,-86.798861,,,,,DOMINICAN DR & METRO CENTER BLVD EB,0,DOMMETEN,
36.150546,0,12ADIVSF,-86.784502,,,,761 12TH AVE & I 40,12TH AVE S & DIVISION ST SB,0,12ADIVSF,
36.136868,,WED17AEN,-86.795931,,,,WEDGEWOOD & 17 AVE,WEDGEWOOD AVE & 17TH AVE S EB,0,WED17AEN,
36.108232,,POWPOWNM,-86.765569,,,,,POWELL AVE & POWELL PL NB,0,POWPOWNM,
36.171733,0,WOO5SEN,-86.764915,,,,485 WOODLAND ST & 5TH ST S,WOODLAND ST & S 5TH ST EB,0,WOO5SEN,
36.192437,,COUDOAWM,-86.834602,,,,,COUNTY HOSPITAL RD & DOAK AVE WB,0,COUDOAWM,
36.19142,0,COUDOAWN,-86.83582,,,,,COUNTY HOSPITAL RD & DOAK AVE WB,0,COUDOAWN,
36.11292,0,MURKNIEN,-86.689366,,,,MURFREESBORO & MCGAVOCK,MURFREESBORO PIKE & KNIGHT VALLEY D,0,MURKNIEN,
36.257412,1,GXIMADLB,-86.714068,,,,,MADISON STATION INBOUND,0,GXIMADLB,
36.177012,0,16SWOOSN,-86.741988,,,,N 16TH ST & PORTER RD,16TH ST & WOODLAND ST SB,0,16SWOOSN,
36.088298,1,MXINASHB,-86.64938,,,,2262 MURFREESBORO PIKE,NASHBORO STATION INBOUND,0,MXINASHB,
36.182274,,23ASEINF,-86.814331,,,,23RD AV N & SEIFRIED ST,23RD AVE N & SEIFRIED ST NB,0,23ASEINF,
35.861601,,AGEXPO,-86.826882,,,,4205 LONG LN,WILLIAMSON CO AG EXPO,0,AGEXPO,
36.148364,,ROYPEREM,-86.674225,,,,ROYAL PKWY & RACHEL PKWY,ROYAL PKWY & PERIMETER PL EB,0,ROYPEREM,
36.196843,0,DICLUCNF,-86.771548,,,,DICKERSON PK & LUCILE ST,DICKERSON PIKE & LUCILE ST NB,0,DICLUCNF,
36.163373,0,LEBEASWN,-86.699707,,,,,LEBANON PIKE & EASTHAVEN TOWNHOMES,0,LEBEASWN,
36.189506,,LEBBONWM,-86.627722,,,,LEBANON & HICKORY HILL,LEBANON PIKE & BONNABROOK DR SB,0,LEBBONWM,
36.321196,,JOEL,-86.867084,,,,,JOELTON FAMILY DOLLAR P & R,0,JOEL,
36.116201,,BRAWIRSF,-86.766448,,,,BRANSFORD AVE & E IRIS DR,BRANSFORD AVE & WEST IRIS DR SB,0,BRAWIRSF,
36.20057,0,GALBURNN,-86.740034,,,,,GALLATIN PK & BURCHWOOD AV,0,GALBURNN,
36.159941,,9ACOMSN,-86.783744,,,,,9TH AVE N & COMMERCE ST SB,0,9ACOMSN,
36.189279,,LISEVASN,-86.764073,,,,,LISCHEY AVE & EVANSTON AVE SB,0,LISEVASN,
36.16805,0,LEBOLDWN,-86.664379,,,,2752 LEBANON PIKE & OLD LEBANON PIKE,LEBANON PIKE & OLD LEBANON RD WB,0,LEBOLDWN,
36.078277,0,MURMARNN,-86.642784,,,,2513 MURFREESBORO PIKE & MARTWAY DR,MURFREESBORO PIKE & MARTWAY DR NB,0,MURMARNN,
36.176552,,23AOSANN,-86.813598,,,,23RD AV N & OSAGE,23RD AVE N & OSAGE ST,0,23AOSANN,
36.14472,,ELMMASEN,-86.711248,,,,ELM HILL PK & MASSMAN DR,ELMHILL PK & MASSMAN DR EB,0,ELMMASEN,
36.157514,0,HERPEAEN,-86.770794,,,,,HERMITAGE AVE & PEABODY ST EB,0,HERPEAEN,
36.171135,0,JEF12AEN,-86.79961,,,,JEFFERSON & 12 AVE,JEFFERSON ST & 12TH AVE N EB,0,JEF12AEN,
36.127614,0,12ALINNN,-86.789082,,,,12TH AV S & LINDEN AV,12TH AVE S & LINDEN AVE NB,0,12ALINNN,
36.110077,,THOWINWF,-86.73481,,,,,THOMPSON LN & WINGATE AVE WB,0,THOWINWF,
36.188328,0,PORGRESF,-86.729427,,,,,PORTER RD & GREENWOOD AVE SB,0,PORGRESF,
36.125078,,FRAINVNF,-86.776593,,,,US HWY 31 & FRANKLIN PIKE,FRANKLIN PIKE & INVERNESS AVE NB,0,FRAINVNF,
36.168638,0,JEFI40EF,-86.812601,,,,2332 JEFFERSON ST,JEFFERSON ST & I-40 EB,0,JEFI40EF,
36.184445,,18ACASNN,-86.812277,,,,,18TH AVE N & CASS ST NB,0,18ACASNN,
36.210728,0,JONFLANN,-86.755202,,,,FLAMINGO & SLAYDEN,JONES AVE  & FLAMINGO DR NB,0,JONFLANN,
36.168009,,JEFI40EN,-86.817577,,,,JEFFERSON & I40 W,JEFFERSON ST & I-40 EB,0,JEFI40EN,
36.219861,0,TUCKINNN,-86.826493,,,,,TUCKER RD & KINGS LN NB,0,TUCKINNN,
36.163749,,39AALASN,-86.833864,,,,,39TH AVE N & ALAMEDA ST SB,0,39AALASN,
36.19301,,LEBJUASN,-86.62348,,,,LEBANON PK & JUAREZ DR,LEBANON PIKE & JUAREZ DR NB,0,LEBJUASN,
36.233801,0,DICMAPNF,-86.758443,,,,,DICKERSON PIKE & MAPLEWOOD TRACE NB,0,DICMAPNF,
36.12221,0,FRAHORNN,-86.775663,,,,FRANKLIN PK & HORNER AV,FRANKLIN PIKE & HORNER AVE NB,0,FRAHORNN,
36.077563,0,H70FORWN,-86.91219,,,,6955 USHY 70S,HWY 70 & FOREST PARK APARTMENTS WB,0,H70FORWN,
36.101951,0,HARHAREN,-86.870292,,,,HARDING RD & HARDING PLACE,HARDING PIKE & HARDING PL EB,0,HARHAREN,
36.155586,,51AGEONF,-86.848664,,,,,51ST AVE N & GEORGIA AVE NB,0,51AGEONF,
36.199854,1,BUEKIRNF,-86.82531,,,,,BUENA VISTA PK & KIRK AVE NB,0,BUEKIRNF,
36.094437,0,MURFRANN,-86.653178,,,,MURFREESBORO & OLD MURFREESBORO,MURFREESBORO PIKE & FRANKLIN LIMEST,0,MURFRANN,
36.236505,,RICEWIEN,-86.789132,,,,,W RICHMOND HILL DR & EWINGDALE DR E,0,RICEWIEN,
36.129506,0,WBBTSN,-86.854763,,,,,WHITE BRIDGE PIKE & BROOKWOOD TERRA,0,WBBTSN,
36.198447,,DICMARNM,-86.770684,,,,DICKERSON PK & FERN AV,DICKERSON PIKE & MARIE MB,0,DICMARNM,
36.101328,0,SHABELEN,-86.80261,,,,1602 SHACKLEFORD RD & BELMONT BLVD,SHACKLEFORD RD & BELMONT BLVD EB,0,SHABELEN,
36.107739,0,MURDELEN,-86.677328,,,,MURFREESBORO & DELL PARKWAY,MURFREESBORO PIKE & DELL PKWY EB,0,MURDELEN,
36.226366,,BOYAMENN,-86.826861,,,,BOYD DRIVE & AMES DRIVE,BOYD DR & AMES DR NB,0,BOYAMENN,
36.149462,0,CHALAFSN,-86.762447,,,,,CHARLES E DAVIS BLVD & LAFAYETTE ST SB,0,CHALAFSN,
36.102724,0,MURTOWEF,-86.665866,,,,1708 MURFREESBORO PIKE & TOWN PARK DR,MURFREESBORO PIKE & TOWN PARK DR EB,0,MURTOWEF,
36.241059,,CHENEENF,-86.67336,,,,,CHEYENNE BLVD & NEELY'S BEND RD NB,0,CHENEENF,
36.273885,0,GALANDNF,-86.709877,,,,N GALLATIN PK,N GALLATIN PIKE & ANDERSON LN NB,0,GALANDNF,
36.109606,,THOSELEN,-86.732269,,,,,THOMPSON LN & SELENA DR EB,0,THOSELEN,
36.166215,,UNI2AWN,-86.777565,,,,UNION ST N & SKYVIEW DR,UNION ST & 2ND AVE WB,0,UNI2AWN,
36.157159,,CLI40_WN,-86.834129,,,,,CLIFTON AVE & 40TH AVE N WB,0,CLI40_WN,
36.189381,0,COUHYDWF,-86.837988,,,,1691 COUNTY HOSPITAL RD,COUNTY HOSPITAL RD & HYDES FERRY RD,0,COUHYDWF,
36.24323,,CHERAISN,-86.767688,,,,CHESAPEAKE DR & RAIN WOOD,CHESAPEAKE DR & RAINWOOD DR SB,0,CHERAISN,
36.131395,,ARTS,-86.7404,,,,ARTS SCHOOL RD & 2ND AVE S,ARTS MAGNET SCHOOL,0,ARTS,
36.259517,0,DICBELSS,-86.757895,,,,DICKERSON PK & BELLSHIRE DR,DICKERSON PIKE & BELLSHIRE DR SB,0,DICBELSS,
36.261602,0,GALMAPNF,-86.7123,,,,169 GALLATIN PIKE S & MAPLE ST,GALLATIN PIKE & MAPLE ST NB,0,GALMAPNF,
36.121215,1,MXIGLENG,-86.703814,,,,,GLENGARRY STATION INBOUND,0,MXIGLENG,
36.183683,,MERHANNN,-86.768456,,,,,MERIDIAN ST & HANCOCK ST NB,0,MERHANNN,
36.203677,0,BAPMEANM,-86.789335,,,,BAPTIST WORLD DR & ROGER AVE,BAPTIST WORLD CENTER DR & MEADE AVE NB,0,BAPMEANM,
36.161028,,TEN50AWN,-86.847693,,,,,TENNESSEE AVE & 50TH AVE WB,0,TEN50AWN,
36.206806,,TRIHAWM,-86.779633,,,,W TRINITY LN & HAMPTON ST,TRINITY LN & HAMPTON ST WB,0,TRIHAWM,
36.244805,,CHEWOOSN,-86.767814,,,,CHESAPEAKE DR & WOOD TRAIL,CHESAPEAKE DR & WOOD TRL SB,0,CHEWOOSN,
36.143158,,MURFESWF,-86.745103,,,,,MURFREESBORO PIKE & FESSLERS LN WB,0,MURFESWF,
36.268491,,DICBELSN,-86.756147,,,,,DICKERSON PK & BELL GRIMES LN,0,DICBELSN,
36.101328,0,SHABELWN,-86.801922,,,,1588 SHACKLEFORD RD & BELMONT BLVD,SHACKLEFORD RD & BELMONT BLVD WB,0,SHABELWN,
36.168654,0,JAM6AWN,-86.785174,,,,5 AVE & JAMES ROBERTSON,JAMES ROBERTSON PKWY & 6TH AVE N WB,0,JAM6AWN,
36.262974,,OLDFARWN,-86.687982,,,,,OLD HICKORY BLVD & FARRIS AVE WB,0,OLDFARWN,
35.849241,,BURWALEF,-86.393012,,,,,BURTON ST & WALNUT ST EB,0,BURWALEF,
36.107799,0,MURDELWN,-86.676468,,,,,MURFREESBORO PIKE & DELL PKWY WB,0,MURDELWN,
36.055847,,NOLAPRNN,-86.715456,,,,US HWY 31 ALT & NOLENSVILLE PIKE,NOLENSVILLE PIKE & APRIL LN NB,0,NOLAPRNN,
36.159527,,LEBLISWN,-86.703951,,,,US HWY 70 & LEBANON PIKE,LEBANON PIKE & LISA LN  WB,0,LEBLISWN,
36.192917,0,PORMCKNN,-86.726639,,,,PORTER RD & STRAIGHTWAY AV,PORTER RD & MCKENNEL DR NB,0,PORMCKNN,
36.144475,1,MXOELMHI,-86.749604,,,,,ELM HILL STATION OUTBOUND,0,MXOELMHI,
36.134441,0,CXINVLWS,-86.888456,,,,6803 CHARLOTTE PIKE & HILLWOOD DR W,NASHVILLE WEST STATION INBOUND,0,CXINVLWS,
36.214783,0,GALSTANF,-86.730154,,,,3828 GALLATIN PIKE & STRATFORD AVE,GALLATIN PIKE & STRATFORD AVE NB,0,GALSTANF,
36.195013,0,JOHELIWN,-86.837902,,,,3574 JOHN MALLETTE DR & ELIZABETH RD,JOHN MALLETTE DR & ELIZABETH RD WB,0,JOHELIWN,
36.15788,,51AILLNF,-86.848785,,,,ILLINOIS AV & 49TH AV N,51ST AVE N & ILLINOIS AVE NB,0,51AILLNF,
36.120943,,GRAKIRSN,-86.790663,,,,12TH AV S & KIRKWOOD AV,GRANNY WHITE PIKE & KIRKWOOD AVE SB,0,GRAKIRSN,
36.055495,1,MXIZELID,-86.642172,,,,,ZELIDA STATION INBOUND,0,MXIZELID,
36.210386,0,WHILUZSN,-86.796541,,,,,WHITES CREEK PIKE & LUZON ST SB,0,WHILUZSN,
36.186758,,GALPETSN,-86.747165,,,,,GALLATIN AVE & PETWAY AVE,0,GALPETSN,
36.16867,,JAM5AEN,-86.78388,,,,JAMES ROBERTSON PW & 5TH AV N,JAMES ROBERTSON PKWY & 5TH AVE N EB,0,JAM5AEN,
36.111314,,FRATHOSN,-86.773528,,,,,FRANKLIN PK & THOMPSON LN SB,0,FRATHOSN,
36.142803,0,MURFESEN,-86.744655,,,,MURFREESBORO & FESSLERS LANE,MURFREESBORO PIKE & FESSLERS LN EB,0,MURFESEN,
36.153222,0,20ACHUNN,-86.800614,,,,20TH AV N & CHURCH ST,20TH AVE N & CHURCH ST NB,0,20ACHUNN,
36.150807,0,12ADIVNN,-86.784265,,,,731 12TH AVE & DIVISION ST,12TH AVE S & DIVISION ST NB,0,12ADIVNN,
36.231512,0,EWIBRIWN,-86.78049,,,,,EWING DR & BRICK CHURCH PIKE WB,0,EWIBRIWN,
36.225139,,BOYFARNN,-86.826484,,,,BOYD DRIVE & FARMVIEW DR,BOYD DR & FARMVIEW DR NB,0,BOYFARNN,
36.148932,,CHALELEM,-86.863642,,,,CHARLOTTE PK & OCEOLA AV,CHARLOTTE PIKE & LELLYETT ST EB,0,CHALELEM,
36.169688,,2AGAYNM,-86.779909,,,,2ND AVE N & GAY ST,2ND AVE & GAY ST NB,0,2AGAYNM,
36.13998,0,21APIESN,-86.800488,,,,21ST AV S & PIERCE AV,21ST AVE S & PIERCE AVE SB,0,21APIESN,
36.193454,,ELIHYDNF,-86.839981,,,,,ELIZABETH RD & HYDES FERRY RD NB,0,ELIHYDNF,
36.080494,0,HARJONWN,-86.717779,,,,,HARDING PIKE & JONQUIL DR WB,0,HARJONWN,
36.158034,,HEAD,-86.804426,,,,20TH AV N & PEARL ST,HEAD MIDDLE SCHOOL,0,HEAD,
36.191732,,PONATHE2,-86.802666,,,,,PONDER PL & ATHENS WAY EB,0,PONATHE2,
36.196528,,DICLUCSN,-86.771895,,,,DICKERSON PK & LUCILE ST,DICKERSON PIKE & LUCILE ST SB,0,DICLUCSN,
36.14316,,EDG15AWN,-86.790598,,,,,EDGEHILL AVE & 15TH AVE S WB,0,EDG15AWN,
36.168967,0,LEBFAIEN,-86.682594,,,,2390 LEBANON PIKE & FAIRWAY DR,LEBANON PIKE & FAIRWAY DR EB,0,LEBFAIEN,
36.118756,,GRAFERNN,-86.791055,,,,GRANNY WHITE PK & FERGUSON AV,GRANNY WHITE PIKE & FERGUSON AVE NB,0,GRAFERNN,
36.196752,0,BAPWEASN,-86.782971,,,,BAPTIST WORLD CTR DR & WEAKLEY,BAPTIST WORLD CENTER  DR & WEAKLEY AVE SB,0,BAPWEASN,
36.170085,0,SHE8SWN,-86.755978,,,,813 SHELBY AVE & 8TH ST S,SHELBY AVE & S 8TH ST WB,0,SHE8SWN,
36.235665,,WHGRENN,-86.816398,,,,WHITES CREEK PK & GREEN LN,WHITES CREEK PIKE & GREEN LN NB,0,WHGRENN,
36.199077,,LISGATNN,-86.762262,,,,,LISCHEY AVE & GATEWOOD AVE NB,0,LISGATNN,
36.21207,,HARGALEN,-86.733838,,,,,HART LANE & GALLATIN PIKE EB,0,HARGALEN,
36.166259,1,MCC5_2,-86.781861,,,MTAMCC,,CENTRAL 5TH AVE - BAY 2,0,MCC5_2,
36.166215,1,MCC5_1,-86.781682,,,MTAMCC,MUSIC CITY CENTRAL 5TH CIR & 5TH AVE N,CENTRAL 5TH AVE - BAY 1,0,MCC5_1,
36.166804,1,MCC5_7,-86.781446,,,MTAMCC,UNNAMED & 5TH AVE N,CENTRAL 5TH AVE - BAY 7,0,MCC5_7,
36.166501,1,MCC5_6,-86.781233,,,MTAMCC,UNNAMED & 5TH AVE N,CENTRAL 5TH AVE - BAY 6,0,MCC5_6,
36.166456,1,MCC5_5,-86.781188,,,MTAMCC,MUSIC CITY CENTRAL 5TH CIR & 5TH AVE N,CENTRAL 5TH AVE - BAY 5,0,MCC5_5,
36.166402,1,MCC5_4,-86.78148,,,MTAMCC,UNNAMED & 5TH AVE N,CENTRAL 5TH AVE - BAY 4,0,MCC5_4,
36.166706,1,MCC5_9,-86.781693,,,MTAMCC,UNNAMED & 5TH AVE N,CENTRAL 5TH AVE - BAY 9,0,MCC5_9,
36.170439,0,SHE16SEN,-86.742956,,,,1593 SHELBY AVE & 16TH ST S,SHELBY AVE & S 16TH ST EB,0,SHE16SEN,
36.016652,,MURVETWN,-86.561482,,,,,MURFREESBORO PIKE & VETERANS MEMORI,0,MURVETWN,
36.160663,,DRDJOJSN,-86.802047,,,,555 DR DB TODD JR BLVD & JO JOHNSTON AVE,DR DB TODD JR BLVD & JO JOHNSTON AV,0,DRDJOJSN,
36.157777,1,CLIINDEN,-86.829643,,,,,CLIFTON AVE & INDIANA AVE EB,0,CLIINDEN,
36.217331,,HARGASEF,-86.743048,,,,,HART LANE & R.S. GASS BLVE EB,0,HARGASEF,
36.194374,,PORBRASN,-86.725677,,,,,PORTER RD & BRANCH ST SB,0,PORBRASN,
36.201715,,LEBTYLNF,-86.617208,,,,LEBANON PK & TYLER DR,LEBANON PIKE & TYLER DR  NB,0,LEBTYLNF,
36.30047,0,GXIRIVEF,-86.69561,,,,,RIVERGATE STATION,0,GXIRIVEF,
36.193904,,BAPWILEN,-86.778438,,,,BAPTIST WORLD DR & WILLIS,BAPTIST WORLD CENTER DR & WILLIS ST EB,0,BAPWILEN,
36.17181,0,JEF11AEN,-86.79716,,,,1102 JEFFERSON ST & 11TH AVE,JEFFERSON ST & 11TH AVE N,0,JEF11AEN,
36.150628,0,WES21AWN,-86.801112,,,,WEST END AV & 21ST AV N,WEST END AVE & 21ST AVE S WB,0,WES21AWN,
36.170924,0,5SRUSSN,-86.764321,,,,186 5TH ST S & RUSSELL ST,S 5TH ST & RUSSELL ST SB,0,5SRUSSN,
36.140711,,ANNPREEF,-86.882851,,,,ANNEX AV & OLD HICKORY BV,ANNEX AVE & PREMIER DR EB,0,ANNPREEF,
36.199243,2,GREATHIM,-86.799892,,,,,GREAT CIRCLE RD & ATHENS WAY EB,0,GREATHIM,
36.144012,,31AHEDNF,-86.816447,,,,,31ST AVE N & HEDRICK ST NB,0,31AHEDNF,
36.120068,2,CHAOLDNF,-86.918141,,,,7292 CHARLOTTE PIKE & OLD CHARLOTTE PIKE,CHARLOTTE PIKE & OLD CHARLOTTE PIKE,0,CHAOLDNF,
36.052658,0,HICHICNN,-86.654986,,,,PARKING LOT & MURFREESBORO PIKE,HICKORY HOLLOW PL & HICKORY HOLLOW,0,HICHICNN,
36.143945,,8AOLYSN,-86.778978,,,,8TH AVENUE S & OLYMPIC,8TH AVE S & OLYMPIC ST SB,0,8AOLYSN,
36.193468,0,METATHWM,-86.804342,,,,METRO CENTER & ATHENS WAY,METROCENTER & ATHENS WAY WB,0,METATHWM,
36.121929,,ETHLAWSF,-86.717859,,,,,E THOMPSON LN & LAWNDALE DR SB,0,ETHLAWSF,
36.193576,,ROS10AEN,-86.807947,,,,,ROSA L PARKS BLVD &  10TH AVE N,0,ROS10AEN,
36.173768,0,EDTDRWNN,-86.822424,,,,1591 ED TEMPLE BLVD & WALTER S DAVIS BLVD,ED TEMPLE BLVD & DR WALTER S DAVIS,0,EDTDRWNN,
36.11584,0,MURMCGEF,-86.696438,,,,,MURFREESBORO PIKE & MCGAVOCK PIKE W,0,MURMCGEF,
36.194193,0,DICLIGSF,-86.772489,,,,,DICKERSON PIKE & LIGON AVE SB,0,DICLIGSF,
36.144897,,8AARCNN,-86.778803,,,,8TH AVENUE & ARCHER,8TH AVE S & ARCHER ST NB,0,8AARCNN,
36.140994,1,MXOFOSTE,-86.739126,,,,,FOSTER STATION OUTBOUND,0,MXOFOSTE,
36.139736,,31AWELWF,-86.813305,,,,,31ST AVE & WELLINGTON AVE WB,0,31AWELWF,
36.174829,0,8AMADNM,-86.792225,,,,1267 ROSA L PARKS BLVD,ROSA PARKS BLVD & MONROE ST NB,0,8AMADNM,
36.153273,0,ELMERMEN,-86.686932,,,,ELM HILL PK & ERMAC DR,ELM HILL PIKE & ERMAC DR EB,0,ELMERMEN,
36.166371,0,33AJOHSN,-86.826852,,,,1171 33RD AVE & CLOVER ST,33RD AVE N & JOHN A MERRITT BLVD SB,0,33AJOHSN,
36.169934,0,5SFATSN,-86.763728,,,,208 5TH ST S & FATHERLAND ST,S 5TH ST & FATHERLAND ST SB,0,5SFATSN,
36.097267,,OLDRIDNN,-86.924712,,,,OLD HICKORY BLVD & MADISON RIDGELAKE APARTMENTS,OLD HICKORY BLVD &  RIDGELAKE PKWY NB,0,OLDRIDNN,
36.144899,1,CHE4AVWF,-86.766931,,,,402 CHESTNUT ST & 4TH AVE S,CHESTNUT ST & 4TH AVE S WB,0,CHE4AVWF,
36.244212,,CHEAPANN,-86.670689,,,,CHEYENNE BV & APACHE LN,CHEYENNE BLVD & APACHE LN,0,CHEAPANN,
36.216897,,CRECRESN,-86.846225,,,,,CREEKWOOD & CREEKLAND CT SB,0,CRECRESN,
36.152666,,GREFAIN,-86.75629,,,,,GREEN ST & FAIRFIELD AVE NB,0,GREFAIN,
36.206868,0,DICOTRSN,-86.768268,,,,DICKERSON PK & OLD TRINITY LN,DICKERSON PIKE & OLD TRINITY LN SB,0,DICOTRSN,
36.219096,,ROWCROWN,-86.817692,,,,,ROWAN DR & CROUCH DR WB,0,ROWCROWN,
36.190017,,LEBHCKNM,-86.62654,,,,LEBANON PK & JACKSON'S COURT YARD,LEBANON PIKE & HICKORY HILL LN NB,0,LEBHCKNM,
36.116566,,MURMCGWN,-86.697203,,,,,MURFREESBORO PIKE & MCGAVOCK PIKE W,0,MURMCGWN,
36.233358,,EWIGYNWN,-86.792164,,,,,EWINGDALE DR & GWYNWOOD DR WB,0,EWIGYNWN,
36.139709,,31AWELEN,-86.813339,,,,,31ST AVE & WELLINGTON AVE EB,0,31AWELEN,
36.241297,0,DOVEAGWN,-86.76779,,,,,DOVERSIDE DR & EAGLEWOOD LN WB,0,DOVEAGWN,
36.117036,,ETHOLDSF,-86.719289,,,,,E THOMPSON LN & OLD GLENROSE SB,0,ETHOLDSF,
36.118399,,ETHWIMSF,-86.718843,,,,,E THOMPSON LN & WIMPOLE DR SB,0,ETHWIMSF,
36.144846,,CHE4AEN,-86.766756,,,,CHESTNUT ST & 4TH AV S,CHESTNUT ST & 4TH AVE  S EB,0,CHE4AEN,
36.213948,0,WHIPIESN,-86.800167,,,,WHITES CREEK PK & CLAYMILLE BV,WHITES CREEK PIKE & PIERPOINT DR SB,0,WHIPIESN,
36.157903,,11APORSF,-86.786781,,,,303 11TH AVE & PORTER ST,11TH AVE & PORTER ST SB,0,11APORSF,
36.161582,0,11ACHASF,-86.790293,,,,361 11TH AVE,11TH AVE & CHARLOTTE AVE SB,0,11ACHASF,
36.15909,,LEBQUIEN,-86.704467,,,,US HWY 70 & LEBANON PIKE,LEBANON PIKE & QUINN CR EB,0,LEBQUIEN,
36.188265,,ATHDOMSN,-86.800339,,,,,ATHENS WAY & DOMINICAN DR SB,0,ATHDOMSN,
36.165679,,5AVCHANN,-86.781727,,,,5TH AVE N & CHARLOTTE AVE,5TH AVE & CHARLOTTE AVE NB,0,5AVCHANN,
36.170894,0,S20BOSNN,-86.735729,,,,392 20TH ST S & BOSCOBEL ST,S 20TH ST & BOSCOBEL ST NB,0,S20BOSNN,
36.186484,,GALPETNN,-86.747091,,,,,GALLATIN AVE & PETWAY AVE NB,0,GALPETNN,
36.132334,,8AVDOUNF,-86.779053,,,,8TH AVENUE & BENTON,8TH AVE S & DOUGLAS AVE NB,0,8AVDOUNF,
36.248649,1,GXODUEWF,-86.719778,,,,1151 GALLATIN PIKE S,DUE WEST STATION OUTBOUND,0,GXODUEWF,
36.07424,0,H70CROWF,-86.93569,,,,7405 USHY 70S & CROSS TIMBERS DR,HWY 70 S & CROSS TIMBERS DR WB,0,H70CROWF,
36.193233,,LISRICNM,-86.763275,,,,LISCHEY & DOUGLAS,LISCHEY AVE & RICHARDSON AVE NB,0,LISRICNM,
36.16641,,HER14AWN,-86.79825,,,,HERMAN ST & 14TH AV N,HERMAN ST & 14TH AVE N WB,0,HER14AWN,
36.236109,,GWYRICNN,-86.792393,,,,,GWYNNWOOD DR & W RICHMOND HILL DR N,0,GWYRICNN,
36.08968,0,H70CAREF,-86.890848,,,,,HWY 70 S & CARNAVON PKWY EB,0,H70CAREF,
36.125676,,12ACARNN,-86.789251,,,,12TH AV S & CARUTHERS AV,12TH AVE S & CARUTHERS AVE NB,0,12ACARNN,
36.231444,,CRERICWN,-86.773358,,,,,CREEKWOOD DR & RICHMOND HILL DR WB,0,CRERICWN,
36.207693,,BUETAINF,-86.819796,,,,,BUENA VISTA PK & TAIGANS CT NB,0,BUETAINF,
36.082232,0,H70HAREN,-86.958489,,,,7733 USHY 70S & HARPETH VALLEY RD,HWY 70S & HARPETH VALLEY RD EB,0,H70HAREN,
36.206181,,LEBMONNF,-86.61293,,,,LEBANON PK & MONACO DR,LEBANON PIKE & MONACO DR NB,0,LEBMONNF,
36.249416,,NEELAREF,-86.686334,,,,,NEELYS BEND RD & LARKIN SPRINGS RD,0,NEELAREF,
36.167583,,JOH31AWN,-86.824377,,,,JOHN A MERRITT BV & 31ST AV N,JOHN A MERRITT BLVD & 31ST AVE N WB,0,JOH31AWN,
36.162389,,44AWALSM,-86.840223,,,,,44TH AVE & WALTER S DAVIS BLVD SB,0,44AWALSM,
36.163543,,ALA39ANN,-86.833819,,,,ALAMEDA ST & 39TH AV N,ALAMEDA ST & 39TH AVE N,0,ALA39ANN,
36.173453,0,FAT16SWN,-86.742328,,,,192 16TH ST S & FATHERLAND ST,FATHERLAND ST & S 16TH ST NB,0,FAT16SWN,
36.153806,,LEBLEBWM,-86.718351,,,,LEBANON & SPENCE,LEBANON PIKE & LEBANON PIKE CIR WB,0,LEBLEBWM,
36.097942,1,NXIVERTS,-86.7385,,,,NOLENSVILLE & VERITAS,VERITAS STATION INBOUND,0,NXIVERTS,
36.198892,,LISGATSF,-86.762388,,,,,LISCHEY AVE & GATEWOOD AVE SB,0,LISGATSF,
36.132893,,WESLEOEN,-86.829728,,,,,WEST END AVE  & LEONARD AVE EB,0,WESLEOEN,
36.13746,0,WED21AEF,-86.800216,,,,,WEDGEWOOD AVE & 21ST AVE EB,0,WED21AEF,
36.13278,,WESCHRWN,-86.830579,,,,,WEST END & CHRISTOPHER WB,0,WESCHRWN,
36.148265,,CHAEASWN,-86.867331,,,,CHARLOTTE PK & BALMY AV,CHARLOTTE AVE & EASTBORO DR WB,0,CHAEASWN,
36.178744,,LEBDANSM,-86.64485,,,,LEBANON & WELLINGTON SQ,LEBANON PIKE & DANYACREST DR SB,0,LEBDANSM,
36.124631,,FRAINVSF,-86.776671,,,,US HWY 31 & FRANKLIN PIKE,FRANKLIN PIKE & INVERNESS AVE SB,0,FRAINVSF,
36.211961,,HARGALWF,-86.733179,,,,,HART LANE & GALLATIN PIKE WB,0,HARGALWF,
36.134333,,WED8AVWN,-86.778933,,,,,WEDGEWOOD AVE & 8TH AVE S WB,0,WED8AVWN,
36.176783,0,MAIMCFWN,-86.755336,,,,921 MAIN ST & MCFERRIN AVE,MAIN ST & MCFERRIN AVE WB,0,MAIMCFWN,
36.12109,1,FRAKIRNN,-86.77526,,,,,FRANKLIN PIKE & KIRKWOOD AVE NB,0,FRAKIRNN,
36.126086,1,NXOGLNRS,-86.752832,,,,NOLENSVILLE & GLENROSE AV,GLENROSE STATION OUTBOUND,0,NXOGLNRS,
36.211723,,DICDONSN,-86.765295,,,,,DICKERSON PK & DONALD ST SB,0,DICDONSN,
36.149009,0,WHALAFNF,-86.762358,,,,CHARLES E DAVIS BLVD & J C NAPIER CT,WHARF AVE & LAFAYETTE ST NB,0,WHALAFNF,
36.152077,1,CXIRICHL,-86.842746,,,,4645 CHARLOTTE AVE & 46TH AVE,46TH AVE/RICHLAND PARK STATION INBOUND,0,CXIRICHL,
36.017932,,MURSUNEF,-86.568408,,,,,MURFREESBORO PIKE & SUNSET ST EB,0,MURSUNEF,
36.059175,,NOLTUSSN,-86.716445,,,,US HWY 31 ALT & US HWY 41 ALT,NOLENSVILLE PIKE & TUSCULUM RD SB,0,NOLTUSSN,
36.087678,0,OLDWOOSF,-86.920852,,,,367 OLD HICKORY BLVD & WOODBURY FALLS DR,OLD HICKORY BLVD & WOODBURY FALLS D,0,OLDWOOSF,
36.209244,0,HAYEVENN,-86.834539,,,,,HAYNES PARK DR & EVE CR NB,0,HAYEVENN,
36.332904,,KHLSHV,-86.624374,,,,,KOHLS - HENDERSONVILLE,0,KHLSHV,
36.261064,,SANLONNN,-86.678101,,,,,SANDHURST DR & LONDON BRIDGE RD NB,0,SANLONNN,
36.077656,,OLDBLFSN,-86.920051,,,,OLD HICKORY BLVD & BELLE FOREST DR,OLD HICKORY BLVD & BELLE FOREST CR SB,0,OLDBLFSN,
36.221017,0,REVREVWN,-86.805541,,,,542 REVELS DR,REVELS DR & REVELS DR WB,0,REVREVWN,
36.144372,0,ELMMASEM,-86.714676,,,,,ELM HILL PIKE & MASSMAN DR EB,0,ELMMASEM,
36.140829,,8AVERSN,-86.778706,,,,8 AVENUE S & VERNON,8TH AVE S & VERNON SB,0,8AVERSN,
36.254815,0,NEENEEEF,-86.702031,,,,,NEELYS BEND RD & NEELYS CHASE DR EB,0,NEENEEEF,
36.134158,,WED8AVEN,-86.779306,,,,,WEDEWOOD AVE & 8TH AVE S EB,0,WED8AVEN,
36.21099,0,FAICLAEN,-86.83911,,,,FAIRVIEW DR & CLARKSVILLE PK,FAIRVIEW DR & CLARKSVILLE PIKE EB,0,FAICLAEN,
36.211888,,TRIOLDWN,-86.789316,,,,TRINITY HILLS PW & OLD MATTHEWS RD,TRINITY HILLS PKWY & OLD MATTHEWS RD WB,0,TRIOLDWN,
36.18635,,25THYDNM,-86.816998,,,,,25TH AVE N & HYDE ST NORTHBOUND MID,0,25THYDNM,
36.211817,,TRIOLDWF,-86.789034,,,,,TRINITY HILLS PKWY & OLD MATTHEWS R,0,TRIOLDWF,
36.180193,0,DBTBUCSN,-86.811179,,,,1803 DR DB TODD JR BLVD & BUCHANAN ST,DR DB TODD BLVD & BUCHANAN ST SB,0,DBTBUCSN,
36.151871,,LAF4AWN,-86.770982,,,,LAFAYETTE & 4 AVE,LAFAYETTE ST & 4TH AVE S WB,0,LAF4AWN,
36.078998,0,LAWSON H,-86.976983,,,,,LAWSON HIGH SCHOOL,0,LAWSON H,
36.129661,1,CXODVDSN,-86.903165,,,,6988 CHARLOTTE PIKE & DAVIDSON DR,DAVIDSON STATION OUTBOUND,0,CXODVDSN,
36.218411,,OLDCOMNN,-86.793737,,,,,OLD MATTHEWS RD & COMBS DR NB,0,OLDCOMNN,
36.14247,0,12AEDGSF,-86.787177,,,,1211 12TH AVE & EDGEHILL AVE,12TH AVE S & EDGEHILL AVE SB,0,12AEDGSF,
36.143403,,CHEMAREN,-86.769849,,,,,CHESTNUT ST & MARTIN ST EB,0,CHEMAREN,
36.165677,,39AJOHSN,-86.834337,,,,39TH AV N & JOHN L DRIVER BV,39TH AVE N & JOHN DRIVER BLVD SB,0,39AJOHSN,
36.137599,0,8AALLSN,-86.778773,,,,8TH AVENUE & ALLOWAY,8TH AVE S & ALLOWAY ST SB,0,8AALLSN,
36.162353,,44AALBNM,-86.840033,,,,44TH AV N & UNKNOWN AL,44TH AVE N & ALBION ST NB,0,44AALBNM,
36.170108,0,HAR5AEN,-86.784722,,,,,HARRISON ST & 5TH AVE EB,0,HAR5AEN,
36.267283,,DELCUMSN,-86.703557,,,,,DELAWARE AVE & CUMBERLAND AVE SB,0,DELCUMSN,
36.108093,0,OLDROCSN,-86.922562,,,,619 OLD HICKORY BLVD & ROCKY LN,OLD HICKORY BLVD & ROCKY LANE SB,0,OLDROCSN,
36.200297,,ANDRACNN,-86.607804,,,,ANDREW JACKSON PW & RACHEL DONELSON PA,ANDREW JACKSON PKWY & RACHEL DONELSON PASS NB,0,ANDRACNN,
36.138954,0,MURBLAWF,-86.732227,,,,107 MAPLE AVE & MURFREESBORO PIKE,MURFREESBORO PIKE & BLANTON AVE WB,0,MURBLAWF,
36.169146,0,JEF21AWN,-86.809428,,,,1986 JEFFERSON ST & 21ST AVE,JEFFERSON ST & 21ST AVE N WB,0,JEF21AWN,
36.153544,,LEBLEBEN,-86.718321,,,,,LEBANON PIKE & LEBANON PIKE CIR EB,0,LEBLEBEN,
36.069631,0,NOLTAYWN,-86.720726,,,,,NOLENSVILLE PIKE & TAYLOR RD WB,0,NOLTAYWN,
36.141776,0,CHE8AWN,-86.778352,,,,CHESTNUT ST & 8TH AV S,CHESTNUT ST & 8TH AVE S WB,0,CHE8AWN,
36.118934,,GRAFERSN,-86.791122,,,,GRANNY WHITE PK & FERGUSON AV,GRANNY WHITE PIKE & FERGUSON AVE SB,0,GRAFERSN,
36.167743,0,SHE5SEM,-86.761642,,,,529 SHELBY AVE,SHELBY AVE & S 5TH ST EB,0,SHE5SEM,
36.156021,0,NXIPBODY,-86.771316,,,,567 2ND AVE,PEABODY STATION INBOUND,0,NXIPBODY,
36.207107,0,GALMAYSN,-86.736105,,,,,GALLATIN PIKE & MAYNOR AVE SB,0,GALMAYSN,
36.236671,,GREKNIEN,-86.803279,,,,,GREEN LN & KNIGHT DR EB,0,GREKNIEN,
36.200787,0,BAPSEMNF,-86.78693,,,,1603 BAPTIST WORLD CENTER DR & SEMINARY ST,BAPTIST WORLD CENTER DR & SEMINARY ST NB,0,BAPSEMNF,
36.194021,0,DICDOUNN,-86.772334,,,,DICKERSON PK & DOUGLAS AV,DICKERSON PIKE & DOUGLAS AVE NB,0,DICDOUNN,
36.267293,0,NDUDUPWM,-86.696937,,,,653 DUPONT AVE N,N DUPONT AVE & DUPONT AVE APARTMENT,0,NDUDUPWM,
36.151559,1,CXO53AVE,-86.852455,,,,5326 CHARLOTTE AVE & MORROW RD,53RD AVE STATION OUTBOUND,0,CXO53AVE,
36.134477,1,MXIPLUSP,-86.722961,,,,,PLUS PARK STATION INBOUND,0,MXIPLUSP,
36.154489,,CHA26AEF,-86.81517,,,,CHARLOTTE AV & 26TH AV N,CHARLOTTE AVE & 26TH AVE F EB,0,CHA26AEF,
36.227897,,BOYBUENN,-86.827407,,,,BUENAVIEW BLVD & TRUMPET CIR,BOYD DR & BUENAVIEW BLVD NB,0,BOYBUENN,
36.169608,0,JEFDBTWN,-86.806359,,,,1784 JEFFERSON ST & DR DB TODD JR BLVD,JEFFERSON ST & DR DB TODD JR BLVD W,0,JEFDBTWN,
36.252256,0,NEERANEN,-86.694108,,,,,NEELYS BEND RD & RANDY RD,0,NEERANEN,
36.13499,0,WESELMEN,-86.823993,,,,,WEST END AVE & ELMINGTON AVE EB,0,WESELMEN,
36.107166,2,HARLEAEM,-86.866652,,,,5076 HARDING PIKE,HARDING PIKE & LEAKE AVE EB,0,HARLEAEM,
36.152293,1,CXISYLPA,-86.837289,,,,CHARLOTTE & 42 AVE,42ND AVE/SYLVAN PARK STATION INBOUND,0,CXISYLPA,
36.075779,2,OLDH70NF,-86.920781,,,,,OLD HICKORY BLVD & HWY 70S NB,0,OLDH70NF,
36.140259,1,21APIENM,-86.800294,,,,21ST AV S & DIXIE PL,21ST AVE S & PIERCE AVE NB,0,21APIENM,
36.154509,,12ADEMNN,-86.786056,,,,12TH AV S & DEMONBREUN ST,12TH AVE S & DEMONBREUN ST NB,0,12ADEMNN,
36.08944,,HAREZEEN,-86.688593,,,,,HARDING PL & EZELL PK EB,0,HAREZEEN,
36.197274,0,GALCARNF,-86.741814,,,,,GALLATIN PK & CAROLYN AVE NB,0,GALCARNF,
36.156975,0,8ADEMSN,-86.780929,,,,191 8TH AVE S & DEMONBREUN ST,8TH AVE S & DEMONBREUN ST SB,0,8ADEMSN,
36.219661,,DICALHNN,-86.762272,,,,,DICKERSON PIKE & ALHAMBRA CIR NB,0,DICALHNN,
36.092753,,H70VAUWN,-86.885343,,,,HIGHWAY 70 S & VAUGHNS GAP RD,HWY 70 S & VAUGHNS GAP RD WB,0,H70VAUWN,
36.148269,,CHABALEF,-86.866926,,,,,CHARLOTTE AVE & BALMY AVE EB,0,CHABALEF,
36.153846,0,LEBSPEWN,-86.721279,,,,,LEBANON PIKE & SPENCE LN WB,0,LEBSPEWN,
36.23312,,GWYEWINN,-86.792319,,,,,GWYNNWOOD DR & EWINGDALE DR NB,0,GWYEWINN,
36.147335,1,21AGRANN,-86.79928,,,,21ST AV S & GRAND AV,21ST AVE S & GRAND AVE NB,0,21AGRANN,
36.182615,,EASCHAEN,-86.735933,,,,1812 EASTLAND AVE & CHAPEL AVE,EASTLAND AVE & CHAPEL AVE EB,0,EASCHAEN,
36.143233,0,WES31AEM,-86.814581,,,,3028 WEST END AVE & 30TH AVE,WEST END AVE & 31ST AVE S EB,0,WES31AEM,
36.246237,,BRICHEEM,-86.769869,,,,BRICKMONT DR & BRICKMONT CT,BRICKMONT CT & CHESAPEAKE DR EB,0,BRICHEEM,
36.163551,,21AHERNN,-86.808379,,,,21ST AV N & HERMOSA ST,21ST AVE N & HERMOSA ST NB,0,21AHERNN,
36.17293,,JEF9AEN,-86.792455,,,,JEFFERSON & 9 AVE,JEFFERSON ST & 9TH AVE N EB,0,JEF9AEN,
36.205552,,JONTRINF,-86.75752,,,,,JONES AVE & TRINITY LN NB,0,JONTRINF,
36.190616,,LISEVANN,-86.763738,,,,,LISCHEY AVE & EVANSTON AVE NB,0,LISEVANN,
36.112451,0,THOWESWF,-86.768579,,,,,THOMPSON LN & WEST IRIS DR WB,0,THOWESWF,
36.195857,,BRIFERSN,-86.776757,,,,,BRICK CHURCH PIKE & FERN AVE SB,0,BRIFERSN,
36.074755,,SAWPLANM,-86.945953,,,,,SAWYER BROWN RD & PLANTATION DR NB,0,SAWPLANM,
36.17165,0,2ASTOSM,-86.781297,,,,2ND AV N & STOCKYARD ST,2ND AVE N & STOCKYARD ST SB,0,2ASTOSM,
36.135034,1,NXOFRGND,-86.759818,,,,4TH AV S & WALSH RD,FAIRGROUNDS STATION OUTBOUND,0,NXOFRGND,
36.174658,,COC17AWN,-86.806598,,,,COCKRILL ST & 17TH N,COCKRILL ST & 17TH AVE WB,0,COC17AWN,
36.204344,0,OPRGENSN,-86.695126,,,,243 OPRY MILLS DR,OPRY MILLS DR & GENERAL JACKSON'S,0,OPRGENSN,
36.236813,,GREKNIWF,-86.803848,,,,,GREEN LN & KNIGHT DR WB,0,GREKNIWF,
36.136225,,WED12AWN,-86.788401,,,,,WEDGEWOOD AVE & 12TH AVE S WB,0,WED12AWN,
36.154836,0,HERDRIWN,-86.758268,,,,US HWY 70 & DRIFTWOOD ST,HERMITAGE AVE & DRIFTWOOD ST WB,0,HERDRIWN,
36.198242,,BRIWEASN,-86.77699,,,,BRICK CHURCH PK & WEAKLEY AV,BRICK CHURCH PIKE & WEAKLEY AVE SB,0,BRIWEASN,
36.141776,0,31AWESSF,-86.815005,,,,,31ST AVE & WEST END AVE SB,0,31AWESSF,
36.154803,0,CHA26AWN,-86.814662,,,,CHARLOTTE AV & 26TH AV N,CHARLOTTE AVE & 26TH AVE N WB,0,CHA26AWN,
36.18348,,23ACLANN,-86.81422,,,,23RD AV N & CLARKSVILLE PK,23RD AVE N & CLARKSVILLE PIKE NB,0,23ACLANN,
36.097223,2,OLDRIDSF,-86.924922,,,,OLD HICKORY BLVD & MADISON AT RIDGELAKE APARTMENTS,OLD HICKORY BLVD & RIDGELAKE PKWY SB,0,OLDRIDSF,
36.162355,,LEBLYNNM,-86.700627,,,,,LEBANON PIKE & LYNMEADE DR NB,0,LEBLYNNM,
36.161079,,LEBLYNNN,-86.701874,,,,LEBANON RD & US HWY 70,LEBANON PIKE & LYNMEADE DR NB,0,LEBLYNNN,
36.26271,0,EOL4AVEF,-86.704983,,,,411 OLD HICKORY BLVD E & 4TH AVE,E OLD HICKORY BLVD & 4TH AVE EB,0,EOL4AVEF,
36.269054,0,GALWILNN,-86.710519,,,,N GALLATIN PK & WILEY ST,GALLATIN PIKE & WILEY ST NB,0,GALWILNN,
36.138301,0,WES440EM,-86.820055,,,,WEST END AVE & MURPHY RD,WEST END AVE & I-440 RAMP EB,0,WES440EM,
36.188345,,26ADOWNN,-86.818317,,,,,26TH AVE & DOWLAN ST NB,0,26ADOWNN,
36.13828,0,WHIKNONF,-86.857519,,,,205 WHITE BRIDGE PIKE,WHITE BRIDGE PIKE & KNOB RD NF,0,WHIKNONF,
36.177882,0,11AJANSN,-86.802933,,,,11TH AV N & JANE,11TH AVE N & JANE ST SB,0,11AJANSN,
36.164867,,33AALASN,-86.826485,,,,33RD AV N & ALAMEDA ST,33RD AVE N & ALAMEDA ST SB,0,33AALASN,
36.136059,,WED12AEF,-86.78829,,,,,WEDGEWOOD AVE & 12TH AVE S EB,0,WED12AEF,
36.050472,1,MXOMTVIE,-86.64832,,,,BELL RD & RAMP,MOUNT VIEW STATION OUTBOUND,0,MXOMTVIE,
36.106285,0,ABBHILEM,-86.818123,,,,,ABBOTT MARTIN RD & HILLSBORO CIRCLE E,0,ABBHILEM,
36.153637,0,LEBSPEEF,-86.721111,,,,,LEBANON PIKE & SPENCE LN EB,0,LEBSPEEF,
36.153217,,LEBSPEEM,-86.72465,,,,,LEBANON PIKE & SPENCE LN EB,0,LEBSPEEM,
36.142159,0,CHEFOREM,-86.774589,,,,,CHESTNUT ST & FORT NEGLEY BLVD EB,0,CHEFOREM,
36.131533,0,BRABENNN,-86.768317,,,,,BRANSFORD AVE & BENTON AVE NB,0,BRABENNN,
36.187036,,LEBCENWF,-86.63138,,,,LEBANON & CENTRAL PIKE,LEBANON PIKE & CENTRAL PK WB,0,LEBCENWF,
36.236246,,GRWHIWN,-86.816768,,,,GREEN LN & WHITES CREEK PK,GREEN LN & WHITES CREEK PIKE WB,0,GRWHIWN,
36.23806,1,GXIWALTF,-86.724213,,,,,WALTON STATION INBOUND,0,GXIWALTF,
36.191652,0,VANGREWM,-86.794393,,,,44 VANTAGE WAY & CONNECTING ROAD,VANTAGE WAY & GREAT CIRCLE RD WB,0,VANGREWM,
36.140894,,ANNCHAWM,-86.882835,,,,ANNEX & PREMIER,ANNEX AVE & CHARLOTTE PIKE WB,0,ANNCHAWM,
36.048934,0,DOLL,-86.713854,,,,,NOLENSVILLE PIKE & HICKORYVIEW DR,0,DOLL,
36.193376,,ELIHYDSN,-86.840143,,,,,ELIZABETH RD & HYDES FERRY RD SB,0,ELIHYDSN,
36.16232,1,CXONGULC,-86.790405,,,,CHARLOTTE & 11TH AV,11TH AVE / N GULCH STATION OUTBOUND,0,CXONGULC,
36.061245,0,NOLMCMNN,-86.716482,,,,US HWY 31 ALT & MCMURRAY DR,NOLENSVILLE PIKE & MCMURRAY DR NB,0,NOLMCMNN,
36.183487,1,GXIEASTN,-86.748559,,,,,EASTLAND STATION INBOUND,0,GXIEASTN,
36.137997,,BLA24AEN,-86.805062,,,,,BLAKEMORE AVE & 24TH AVE S EB,0,BLA24AEN,
36.222813,0,REVROWWN,-86.809262,,,,,REVELS DR & ROWAN DR WB,0,REVROWWN,
36.14918,0,ELMAPPNF,-86.702937,,,,1912 ELM HILL PIKE & APPLETON DR,ELM HILL PIKE & APPLETON DR NB,0,ELMAPPNF,
36.192671,,HAMRIVNM,-86.831987,,,,,HAMILTON RD S & RIVER DR NB,0,HAMRIVNM,
36.078866,0,H70COLEF,-86.952313,,,,,HWY 70 S & COLEY DAVIS RD EB,0,H70COLEF,
36.151892,0,CHA51AEN,-86.848786,,,,5116 CHARLOTTE AVE & 51ST AVE,CHARLOTTE AVE & 51ST AVE N EB,0,CHA51AEN,
36.077513,,STAPLES,-86.947762,,,,HWY 70 S & MALL ENTRANCE,HWY 70 S & STAPLES PARK-N-RIDE,0,STAPLES,
36.073839,0,H70COLEM,-86.934652,,,,HWY 70 S & DOLCE JEANNE,HWY 70 S & COLICE JEANNE RD EB,0,H70COLEM,
36.163323,,ALB33AWN,-86.825945,,,,,ALBION ST & 33RD AVE N WB,0,ALB33AWN,
36.147586,1,LAFLEWWN,-86.758364,,,,162 LAFAYETTE ST & LEWIS ST,LAFAYETTE ST & LEWIS ST WB,0,LAFLEWWN,
36.21007,1,GXOGREEN,-86.733544,,,,3405 GALLATIN PIKE & HOME RD,GREENFIELD STATION OUTBOUND,0,GXOGREEN,
36.092459,,H70VAUEN,-86.885503,,,,HIGHWAY 70 S & VAUGHNS GAP RD,HWY 70 S & VAUGHN'S GAP RD EB,0,H70VAUEN,
36.1365,1,12AWEDNF,-86.78846,,,,1545 S 12TH AVE & WADE AVE,12TH AVE S & WEDGEWOOD AVE NB,0,12AWEDNF,
36.170671,,LEBRIVWN,-86.653457,,,,LEBANON PK & RIVERSTONE BLVD,LEBANON PIKE & RIVERSTONE BLVD SB,0,LEBRIVWN,
36.141069,0,WESACKWN,-86.817404,,,,,WEST END AVE & ACKLEN PARK DR WB,0,WESACKWN,
36.21566,,BULJONWN,-86.755942,,,,,BULLOCK AVE & JONES AVE,0,BULJONWN,
36.15358,,12ALAUNN,-86.785484,,,,12TH AVE S & LAUREL ST,12TH AVE & LAUREL ST NB,0,12ALAUNN,
36.210825,0,SLAOAKE,-86.753878,,,,SLAYDEN & OAKWOOD,SLAYDON DR & OAKWOOD AVE EB,0,SLAOAKE,
36.01921,,MURSTOEN,-86.573521,,,,,MURFREESBORO PIKE & STONES RIVER RD,0,MURSTOEN,
36.168492,,HAR8AEN,-86.788412,,,,HARRISON ST & 8TH AV N,HARRISON ST & 8TH AVE N EB,0,HAR8AEN,
36.171492,0,19SLILNN,-86.737189,,,,,S 19TH ST & LILLIAN ST NB,0,19SLILNN,
36.182686,,CLA18ASN,-86.812368,,,,,CLARKSVILLE PIKE & 18TH AVE SB,0,CLA18ASN,
36.172087,0,1SOLDSM,-86.773844,,,,146 1ST ST N,N 1ST ST & OLDHAM ST SB,0,1SOLDSM,
36.127999,0,WHIPOSNN,-86.851772,,,,WHITE BRIDGE PK & POST RD,WHITE BRIDGE PIKE & POST RD NB,0,WHIPOSNN,
36.147059,,8ASOUSN,-86.779215,,,,8 AVENUE S & SOUTH,8TH AVE S & SOUTH ST SB,0,8ASOUSN,
36.185453,,26ACLANN,-86.818846,,,,,26TH AVE N & CLARKSVILLE PIKE NB,0,26ACLANN,
36.131505,0,WESWILWM,-86.834269,,,,WEST END AV & WILSON BV,WEST END AVE & WILSON BLVD WB,0,WESWILWM,
36.146839,,ELMAIRWM,-86.704906,,,,ELM HILL PK & AIR LANE DR,ELM HILL PIKE & AIR LANE DR WB,0,ELMAIRWM,
36.18983,,DICEVASF,-86.773075,,,,,DICKERSON PIKE & EVANSTON RD SB,0,DICEVASF,
36.222723,,REVROWEF,-86.809341,,,,ROWAN DR & REVELS DR,Revels Dr & Rowan Dr EB,0,REVROWEF,
36.263815,0,DICWESNF,-86.757127,,,,3810 DICKERSON PIKE,DICKERSON PIKE & WESTCHESTER DR N,0,DICWESNF,
36.175433,0,N1SOLDNM,-86.77432,,,,1ST ST N,N 1ST ST & OLDHAM ST NB,0,N1SOLDNM,
36.154919,,LEBCLOWN,-86.712349,,,,,LEBANON PIKE & CLOVERNOOK DR WB,0,LEBCLOWN,
36.197152,,GALCARSN,-86.742074,,,,,GALLATIN PK & CAROLYN AVE SB,0,GALCARSN,
36.193778,0,METGREWM,-86.810121,,,,2342 ROSA L PARKS BLVD & CONNECTING ROAD,METROCENTER & GREAT CIRCLE RD WB,0,METGREWM,
36.143929,0,ELMSPEEM,-86.720575,,,,ELM HILL PK & SPENCE LN,ELM HILL PIKE  & SPENCE LN EB,0,ELMSPEEM,
36.181099,,MERBERNN,-86.768835,,,,MERIDIAN ST & TREUTLAND ST,MERIDIAN ST & BERRY ST NB,0,MERBERNN,
36.196325,,GREATHEM,-86.792789,,,,GREAT CIRCLE & VANTAGE WY,GREAT CIRCLE RD & ATHENS WAY EB,0,GREATHEM,
36.266161,,DUPARCEN,-86.686945,,,,,N DUPONT AVE & ARCHWOOD DR EB,0,DUPARCEN,
36.163234,1,MLK10AEF,-86.787821,,,,395 10TH AVE & RAMP,MARTIN LUTHER JR & 10TH AVE N EB,0,MLK10AEF,
36.152845,,FAIGRESN,-86.75644,,,,,FAIRFIELD AVE & GREEN ST SB,0,FAIGRESN,
36.120879,,HILLOMNF,-86.807759,,,,US HWY 431 & LOMBARDY AVE,HILLSBORO PIKE & LOMBARDY AVE NB,0,HILLOMNF,
36.167908,,LEBCRAEN,-86.691479,,,,LEBANON RD & US HWY 70,LEBANON PIKE & CRAIGMEADE DR EB,0,LEBCRAEN,
36.184729,0,CLA24AEN,-86.815769,,,,CLARKSVILLE PK & 24TH AV N,CLARKSVILLE PIKE & 24TH AVE N EB,0,CLA24AEN,
36.190773,0,HYDMANSF,-86.83859,,,,,HYDES FERRY RD & MANCHESTER AVE SB,0,HYDMANSF,
36.16466,0,6AVDEANN,-86.782651,,,,6TH AV N & DEADERICK ST,6TH AVE N & DEADERICK ST NB,0,6AVDEANN,
36.019614,,MURSTOWF,-86.573641,,,,,MURFREESBORO PIKE & STONES RIVER RD,0,MURSTOWF,
36.169407,0,SHE7SWN,-86.757756,,,,711 SHELBY AVE & 7TH ST S,SHELBY AVE & S 7TH ST WB,0,SHE7SWN,
36.145921,,ROYDONEN,-86.66687,,,,,ROYAL PKWY & DONELSON PIKE EB,0,ROYDONEN,
36.144052,,ELMSPEWN,-86.72106,,,,,ELM HILL PIKE & SPENCE LN WB,0,ELMSPEWN,
36.145648,,WES27AWN,-86.811401,,,,WEST END AV & 27TH AV N,WEST END AVE & 27TH AVE S WB,0,WES27AWN,
36.144025,0,ELMSPEWF,-86.723261,,,,1442 ELM HILL PIKE,ELM HILL PIKE & SPENCE LN WB,0,ELMSPEWF,
36.145052,1,CXOAMERI,-86.872141,,,,CHARLOTTE & AMERICAN,AMERICAN STATION OUTBOUND,0,CXOAMERI,
36.199003,,BAPLOCSM,-86.784718,,,,BAPTIST WORLD DR & LOCK DR,BAPTIST WORLD CENTER DR & LOCK DR SB,0,BAPLOCSM,
36.112013,,THOPOWEM,-86.764776,,,,THOMPSON & BRANDSFORD AV,THOMPSON LN & POWELL AVE EB,0,THOPOWEM,
36.246271,0,GALBERWF,-86.72157,,,,1221 GALLATIN PIKE S,S GALLATIN PIKE & BERKLEY DR SB,0,GALBERWF,
36.134804,0,WESBOWWN,-86.824957,,,,,WEST END AVE & BOWLING AVE WB,0,WESBOWWN,
36.138211,,BLA25AEN,-86.807159,,,,,BLAKEMORE AVE & 25TH AVE S EB,0,BLA25AEN,
36.173302,,DBTUNDNN,-86.808157,,,,,DR DB TODD BLVD & UNDERWOOD ST NB,0,DBTUNDNN,
36.247943,0,NEEJAPEF,-86.682633,,,,,NEELYS BEND RD & JASPERSON DR EB,0,NEEJAPEF,
36.144938,1,MXIELMHI,-86.750456,,,,,ELM HILL STATION INBOUND,0,MXIELMHI,
36.200189,,DICGATSN,-86.770043,,,,,DICKERSON PIKE & GATEWOOD AVE SB,0,DICGATSN,
36.176017,,MEIGS,-86.760399,,,,,MEIGS MAGNET SCHOOL,0,MEIGS,
36.141977,,EDG9AWN,-86.780898,,,,,EDGE HILL AVE & 9TH AVE S WB,0,EDG9AWN,
36.107998,0,GLEBENEN,-86.809671,,,,1914 GLEN ECHO RD & BENHAM AVE,GLEN ECHO RD & BENHAM AVE EB,0,GLEBENEN,
36.018361,,MURREBWF,-86.568116,,,,,MURFREESBORO PIKE & REBECCA WAY WB,0,MURREBWF,
36.165924,0,ALB21AWN,-86.808661,,,,ALBION & 21 ST AVE N,ALBION ST & 21ST AVE N WB,0,ALB21AWN,
36.169844,,LEBGRAEN,-86.674593,,,,LEBANON PK & GRAYLYNN DR,LEBANON PIKE & GRAYLYNN DR EB,0,LEBGRAEN,
36.138647,0,31ANATEN,-86.810871,,,,,31ST AVE & NATCHEZ TRC EB,0,31ANATEN,
36.187122,0,DICCLESF,-86.773493,,,,886 DICKERSON PIKE & CLEVELAND ST,N DICKERSON PIKE & CLEVELAND ST SB,0,DICCLESF,
36.195512,0,BRKFERNN,-86.776677,,,,1202 BRICK CHURCH PIKE & FERN AVE,BRICK CHURCH PIKE & FERN AVE NB,0,BRKFERNN,
36.180123,0,BUCDBTWN,-86.810917,,,,1690 BUCHANAN ST & DR DB TODD JR BLVD,BUCHANAN ST & DR D B TODD JR BLVD WB,0,BUCDBTWN,
36.144681,1,NXOCHSNT,-86.766576,,,,4TH AVE & CHESTNUT,CHESTNUT STATION OUTBOUND,0,NXOCHSNT,
36.18522,0,PORTILNF,-86.731145,,,,823 PORTER RD & TILLMAN LN,PORTER RD & TILLMAN LN SB,0,PORTILNF,
36.24635,0,GALBERNN,-86.721253,,,,S GALLATIN PK & BERKLEY DR,S GALLATIN PIKE & BERKLEY DR NB,0,GALBERNN,
36.111844,,NXOTHMPN,-86.745821,,,,NOLENSVILLE & MCCLAIN AV,THOMPSON STATION OUTBOUND,0,NXOTHMPN,
36.195962,,CLIBUENM,-86.826163,,,,CLIFF & BUENA VISTA,CLIFF DR & SMITH TOWERS NB,0,CLIBUENM,
36.197056,,CLIBUENN,-86.82804,,,,CLIFF DR & BUENA VISTA PK,CLIFF DR & BUENA VISTA PIKE NB,0,CLIBUENN,
36.131239,0,WESWILEN,-86.834654,,,,3918 WEST END AVE & MAYFAIR RD,WEST END & WILSON BLVD,0,WESWILEN,
36.272253,0,ANDMCAWN,-86.690438,,,,,ANDERSON LN & MCARTHUR DR WB,0,ANDMCAWN,
36.525005,,CLK E11,-87.217205,,,,,CLARKSVILLE EXIT 11 P&R,0,CLK E11,
36.110999,,THOEUGEN,-86.754673,,,,,THOMPSON LN & EUGENIA AVE EB,0,THOEUGEN,
36.210208,0,JONWOOSN,-86.757012,,,,JONES & WOODY HILL,JONES AVE & WOODYHILL DR SB,0,JONWOOSN,
36.117135,,ETHOLDNN,-86.719031,,,,,E THOMPSON LN & OLD GLENROSE NB,0,ETHOLDNN,
36.171661,0,DBTHEINF,-86.807475,,,,1353 DR DB TODD JR BLVD & HEIMAN ST,DR DB TODD BLVD & HEIMAN ST NB,0,DBTHEINF,
36.225337,0,BUEBUESM,-86.8226,,,,BUENA VISTA DRIVE & BUENAVIEW BV,BUENA VISTA PIKE & KINGS LN SB,0,BUEBUESM,
36.130048,,GOOKIPSF,-86.700261,,,,,GOODBAR DR & KIPLING DR SB,0,GOOKIPSF,
36.182851,,16SEASNN,-86.740997,,,,,N 16TH ST & EASTLAND AVE NB,0,16SEASNN,
36.065119,,NOLNORSM,-86.71749,,,,,NOLENSVILLE PIKE & NORTHCREST DR SB,0,NOLNORSM,
36.142676,0,21AMEDNN,-86.79995,,,,21ST AV S & GARLAND AV,21ST AVE S & MEDICAL CENTER DR NB,0,21AMEDNN,
36.066936,,NOLNORSN,-86.718231,,,,NOLENSVILLE & NORTHCREST DR.,NOLENSVILLE PIKE & NORTHCREST DR SB,0,NOLNORSN,
36.210434,,ANDALBNN,-86.600197,,,,,ANDREW JACKSON PKWY & ALBANY DR NB,0,ANDALBNN,
36.135904,,WED15AEF,-86.791639,,,,,WEDGEWOOD AVE & 15TH AVE S EB,0,WED15AEF,
36.246647,,CHECCTNN,-86.669281,,,,CHEYENNE BV & CHEYENNE CT,CHEYENNE BLVD & CHEYENNE CT,0,CHECCTNN,
36.192341,0,CLACLISN,-86.829181,,,,CLARKSVILLE PK & CLIFF DR,CLARKSVILLE PIKE & CLIFF DR SB,0,CLACLISN,
36.24406,0,DOVDICWF,-86.757403,,,,,DOVERSIDE DR & DICKERSON PIKE WB,0,DOVDICWF,
36.23502,0,CREOAKSN,-86.766514,,,,,CREEKWOOD DR & OAKVIEW DR SB,0,CREOAKSN,
36.234353,0,CREOAKSM,-86.76768,,,,3333 CREEKWOOD DR,CREEKWOOD DR & OAKVIEW DR SB,0,CREOAKSM,
36.154039,1,CXO2831,-86.818055,,,,CHARLOTTE AV & 28TH AV N,28TH/31ST AVE CONNECTOR STATION OUTBOUND,0,CXO2831,
36.134879,,WEDHILWF,-86.784337,,,,,WEDGEWOOD AVE & HILLSIDE AVE WB,0,WEDHILWF,
36.145528,0,ELMELMEF,-86.706175,,,,,ELM HILL PIKE & ELM TREE DR EB,0,ELMELMEF,
36.252211,,CHECCRNN,-86.671039,,,,CHEYENNE CR & CHEYENNE BV,CHEYENNE BLVD & CHEYENNE CR,0,CHECCRNN,
36.157392,,HERPEAWN,-86.770331,,,,HERMITAGE AV & LEA AV,HERMITAGE AVE & PEABODY ST WB,0,HERPEAWN,
36.148963,0,21WE,-86.800132,,,,,21ST AVE PAST WEST END AVE SB,0,21WE,
36.156777,0,8ADEMNN,-86.78067,,,,,8TH AVE S & DEMONBREUN ST NB,0,8ADEMNN,
36.198116,0,RIVDORNM,-86.723062,,,,1803 RIVERSIDE DR & DORCHESTER AVE,RIVERSIDE DR & DORCHESTER AVE NB,0,RIVDORNM,
36.17301,,FAT18SEN,-86.73886,,,,,FATHERLAND ST & S 18TH ST EB,0,FAT18SEN,
36.169933,,LEBGRAWN,-86.674357,,,,,LEBANON PIKE & GRAYLNN DR WB,0,LEBGRAWN,
36.232782,0,DICMAPSF,-86.758819,,,,3162,DICKERSON PIKE & MAPLEWOOD TRACE SB,0,DICMAPSF,
36.080245,,RECHAREN,-86.717891,,,,,RECOVERY RD & HARDING PL EB,0,RECHAREN,
36.154331,0,28ACHANF,-86.818228,,,,,28TH AVE & CHARLOTTE AVE NB,0,28ACHANF,
36.293366,0,GALALLSN,-86.702361,,,,1611 GALLATIN PIKE N & ALTA LOMA RD,N GALLATIN PK & ALTA LOMA RD SB,0,GALALLSN,
36.136129,,WED15AWF,-86.792241,,,,,WEDGEWOOD AVE & 15TH AVE S WB,0,WED15AWF,
36.171413,,SHE10SWN,-86.751834,,,,,SHELBY AVE & S 10TH ST WB,0,SHE10SWN,
36.1019,1,NXOANTCH,-86.740743,,,,NOLENSVILLE PK & ANTIOCH PK,ANTIOCH STATION OUTBOUND,0,NXOANTCH,
36.117639,0,HILGOLSF,-86.810283,,,,3225 HILLSBORO PIKE & GOLF CLUB LN,HILLSBORO PIKE & GOLF CLUB LN SB,0,HILGOLSF,
36.111538,,THOKRAWN,-86.757605,,,,,THOMPSON LN & KRAFT DR WB,0,THOKRAWN,
36.143867,0,ELMSPEEN,-86.723189,,,,1442 ELM HILL PIKE,ELM HILL PIKE & SPENCE LN EB,0,ELMSPEEN,
36.130444,0,8APRENN,-86.778409,,,,US HWY 31 & 8TH AVE S,8TH AVE S & PRENTICE AVE NB,0,8APRENN,
36.050198,1,MXIMTVIE,-86.648198,,,,,MOUNT VIEW STATION INBOUND,0,MXIMTVIE,
36.229022,,GALBRONN,-86.725043,,,,,S GALLATIN PIKE & BROADMOOR DR NB,0,GALBRONN,
36.173188,0,FAT17SWN,-86.739761,,,,1707 FATHERLAND ST & 17TH ST S,FATHERLAND & S 17TH ST,0,FAT17SWN,
36.138948,1,CXOANNEX,-86.880902,,,,6606 CHARLOTTE PIKE & ANNEX AVE,ANNEX STATION OUTBOUND,0,CXOANNEX,
36.231059,,EWIEWIWN,-86.7766,,,,EWING DR & EWING LANE,EWING DR & EWING LN WB,0,EWIEWIWN,
36.162113,,HER24AEN,-86.812001,,,,HERMAN ST & 24TH AV N,HERMAN ST & 24TH AVE N EB,0,HER24AEN,
36.180745,1,ROSGARSN,-86.796586,,,,1721 ROSA L PARKS BLVD & GARFIELD ST,ROSA PARKS BLVD & GARFIELD ST SB,0,ROSGARSN,
36.168027,,JAMGAYWF,-86.777868,,,,,JAMES ROBERTSON PKWY & GAY ST WB,0,JAMGAYWF,
36.098534,0,MURHARWN,-86.659101,,,,1844 MURFREESBORO PIKE & HARDING PL,MURFREESBORO PIKE & HARDING PL WB,0,MURHARWN,
36.119246,0,HARBELNN,-86.855264,,,,4806 HARDING PIKE & FRANSWORTH DR,HARDING PIKE & BELLE MEADE BLVD NB,0,HARBELNN,
36.151738,,ELMROYWN,-86.676829,,,,ELM HILL PK & ROYAL PW,ELM HILL PIKE & ROYAL PKWY WB,0,ELMROYWN,
36.228219,,BUEBUEEM,-86.823837,,,,BUENAVIEW BV & BUENA VISTA PK,BUENAVIEW BLVD & BUENA VISTA PIKE E,0,BUEBUEEM,
36.207966,,LEBHIGSN,-86.611594,,,,,LEBANON PIKE & HIGHLAND VIEW DR SB,0,LEBHIGSN,
36.199178,,BAPLOCNM,-86.78474,,,,BAPTIST WORLD DR & SEMINARY ST,BAPTIST WORLD CENTER DR & LOCK RD NB,0,BAPLOCNM,
36.189409,,COUHYDNN,-86.83773,,,,,COUNTY HOSPITAL RD & HYDES FERRY RD NB,0,COUHYDNN,
36.16084,0,TEN55AWN,-86.854201,,,,5490 TENNESSEE AVE & 55TH AVE,TENNESSEE AVE & 55TH AVE N WB,0,TEN55AWN,
36.185908,,25ACLASN,-86.817295,,,,,25TH AVE & CLARKSVILLE PIKE SB,0,25ACLASN,
36.213487,,ANDTRENN,-86.597721,,,,,ANDREW JACKSON PKWY & TRENTON DR NB,0,ANDTRENN,
36.134135,1,21AFAINN,-86.801021,,,,US HWY 431 & 21ST AVE S,21ST AVE S & FAIRFAX AVE NB,0,21AFAINN,
36.107568,0,GRAGRANN,-86.794045,,,,3811 GRANNY WHITE PIKE & GRANDVIEW DR,GRANNY WHITE PIKE & GRANDVIEW DR NB,0,GRAGRANN,
36.154035,0,11ALAUNN,-86.78429,,,,303 11TH AVE & LAUREL ST,11TH AVE & LAUREL ST NB,0,11ALAUNN,
36.158515,0,LEBWILWN,-86.705721,,,,297 WILOWEN DR & LEBANON PIKE,LEBANON PIKE & WILLOWEN DR WB,0,LEBWILWN,
36.120114,2,CHAOLDSN,-86.9183,,,,,CHARLOTTE PIKE & OLD CHARLOTTE PIKE,0,CHAOLDSN,
36.195265,,PORRIVEN,-86.724159,,,,PORTER RD & PORTER AV,PORTER RD & RIVERSIDE DR EB,0,PORRIVEN,
36.168906,,LEBMUNSN,-86.656096,,,,LEBANON PK & MUNN RD,LEBANON PIKE & MUNN RD SB,0,LEBMUNSN,
36.105615,1,MXODONEL,-86.672004,,,,,DONELSON/DELL STATION OUTBOUND,0,MXODONEL,
36.124624,,BRAROSNN,-86.765827,,,,,BRANSFORD AVE & ROSEDALE AVE NB,0,BRAROSNN,
36.193698,,CLASHASN,-86.831449,,,,CLARKSVILLE PK & BUENA VISTA PK,CLARKSVILLE PIKE & S HAMILTON RD SB,0,CLASHASN,
36.16854,,7AVHARNN,-86.786736,,,,708 7TH AVE,7TH & HARRSION NB,0,7AVHARNN,
36.193064,,CLASHASF,-86.830338,,,,CLARKSVILLE PK & BUENA VISTA PK,CLARKSVILLE PIKE & S HAMILTON RD SB,0,CLASHASF,
36.150263,0,ELMAIREN,-86.698039,,,,,ELM HILL PIKE & AIR LANE DR EB,0,ELMAIREN,
36.226811,0,DICBENNF,-86.759778,,,,3028 DICKERSON PIKE,DICKERSON PIKE & BEN ALLEN RD NB,0,DICBENNF,
36.111311,0,THOKRAEF,-86.757596,,,,,THOMPSON LN & KRAFT DR,0,THOKRAEF,
36.069342,0,COLBAUSN,-86.933604,,,,603 COLICE JEANNE RD & BAUGH RD,COLICE JEANNE RD & BAUGH RD SB,0,COLBAUSN,
36.136319,0,WED16ASN,-86.794443,,,,,WEDGEWOOD AVE & 16TH AVE WB,0,WED16ASN,
36.168689,,JEFI40WN,-86.813078,,,,JEFFERSON & WILSON VILLAGE,JEFFERSON ST & I-40 WB,0,JEFI40WN,
36.256277,,CHEMANNN,-86.674733,,,,,CHEYENNE BLVD & HIDDEN ACRES APTS NB,0,CHEMANNN,
36.25534,0,NEEFOREF,-86.703941,,,,511 NEELYS BEND RD & MARGARET ST,NEELYS BEND RD & FOREST PARK RD,0,NEEFOREF,
36.30231,0,GALCONSF,-86.692728,,,,2054 GALLATIN PIKE N & TWIN HILLS DR,GALLATIN PK & CONFERENCE DR SB,0,GALCONSF,
36.257698,,CHEMANNF,-86.677769,,,,,CHEYENNE BLVD & MANZANO RD NB,0,CHEMANNF,
36.147269,,8ABASNN,-86.778953,,,,8TH AVENUE & BASS,8TH AVE S & BASS ST NB,0,8ABASNN,
36.114169,,HILWOOSN,-86.811039,,,,,HILLSBORO PIKE & WOODMONT BLVD SB,0,HILWOOSN,
36.173506,0,EDTDRWSF,-86.822462,,,,1571 ED TEMPLE BLVD & WALTER S DAVIS BLVD,ED TEMPLE BLVD & DR WALTER S DAVIS,0,EDTDRWSF,
36.149954,,20ABRONF,-86.798191,,,,20TH AV S & BROADWAY,20TH AVE S & BROADWAY AVE NB,0,20ABRONF,
36.08653,1,NOLELYNN,-86.729632,,,,3904 NOLENSVILLE PIKE,ELYSIAN FIELDS STATION INBOUND,0,NOLELYNN,
36.195518,0,RIVPORSN,-86.723559,,,,,RIVERSIDE DR & PORTER RD SB,0,RIVPORSN,
36.121384,2,HARHILLW,-86.852753,,,,HARDING PK & GARDNER DR,HARDING PIKE & HILLWOOD BLVD WB,0,HARHILLW,
36.134306,0,12AWESNN,-86.788828,,,,1903 S 12TH AVE & ACKLEN AVE,12TH AVE S & WEST GROVE AVE NB,0,12AWESNN,
36.133255,,WEDBRAEN,-86.769002,,,,,WEDGEWOOD AVE & BRANSFORD AVE EB,0,WEDBRAEN,
36.104798,,GRAMORSM,-86.796221,,,,GRANNY WHITE PK & MORROW AV,GRANNY WHITE PIKE & MORROW AVE SB,0,GRAMORSM,
36.13586,1,12AWEDSF,-86.7889,,,,1659 S 12TH AVE & WEDGEWOOD AVE,12TH AVE S & WEDGEWOOD SB,0,12AWEDSF,
36.112996,0,MURKNIWF,-86.688761,,,,1442 MURFREESBORO PIKE & MCGAVOCK PIKE,MURFREESBORO PIKE & KNIGHT VALLEY D,0,MURKNIWF,
36.204497,,LEBBELNN,-86.614604,,,,LEBANON PK & BELINDA DR,LEBANON PIKE & BELINDA DR NB,0,LEBBELNN,
36.145763,,DONROYNN,-86.666486,,,,DONELSON PIKE & SHACKLETT DR,DONELSON PKWY & ROYAL PKWY NB,0,DONROYNN,
36.195357,,LEBBONSF,-86.621937,,,,LEBANON PK & MUNN RD,LEBANON PIKE & BONNA SPRINGS DR SB,0,LEBBONSF,
36.128043,0,WHIPOSSN,-86.852227,,,,WHITE BRIDGE PK & POST RD,WHITE BRIDGE PIKE & POST RD SB,0,WHIPOSSN,
36.07089,,TODSAWEF,-86.946694,,,,,TODD PREIS DR & SAWYER BROWN RD EB,0,TODSAWEF,
36.158204,,40ACATNN,-86.834186,,,,40TH AV N & CATHERINE JOHNSON PW,40TH AVE N & CATHERINE JOHNSON PKWY NB,0,40ACATNN,
36.244207,1,DWMRT,-86.760509,,,,,DICKERSON RD WAL MART,0,DWMRT,
36.134916,,MASPATNN,-86.704613,,,,,MASSMAN DR & PATRICIA DR NB,0,MASPATNN,
36.180613,,23RBUCSN,-86.814645,,,,,23RD AVE & BUCHANAN ST SB,0,23RBUCSN,
36.20058,0,DICGATNF,-86.769664,,,,DICKERSON PK & GATEWOOD AV,DICKERSON PIKE & GATEWOOD AVE NB,0,DICGATNF,
36.179259,,3AVTAYNN,-86.787365,,,,3RD AV N & TAYLOR ST,3RD AVE N & TAYLOR ST NB,0,3AVTAYNN,
36.197061,,LEBOLDSF,-86.621058,,,,,LEBANON PIKE & OLD HICKORY BLVD SB,0,LEBOLDSF,
36.126788,0,HARBOSWM,-86.845188,,,,,HARDING PIKE & BOSLEY SPRINGS RD WB,0,HARBOSWM,
36.127213,,THOCATEN,-86.704016,,,,THOMPSON PL & COARSEY DR,THOMPSON PL & CATINA DR EB,0,THOCATEN,
36.096467,,H70VOSWN,-86.877528,,,,STATE HWY 1 & MEMPHIS BRISTOL HWY,HIGHWAY 70 S & VOSSLAND DR WB,0,H70VOSWN,
36.053735,,NOLBRESN,-86.715196,,,,US HWY 31 ALT & US HWY 41 ALT,NOLENSVILLE  PK & BREWER DR,0,NOLBRESN,
36.20624,,LEBMONSN,-86.613246,,,,,LEBANON PIKE & MONACO DR SB,0,LEBMONSN,
36.262692,,OLDLARWF,-86.684728,,,,,E OLD HICKORY BLVD & LARKIN SPRINGS,0,OLDLARWF,
36.084946,0,H70PERWN,-86.89458,,,,6596 USHY 70S & PERCY WARNER BLVD,HWY 70S & PERCY WARNER BLVD WB,0,H70PERWN,
36.163356,,33AALBSN,-86.826119,,,,,33 RD AVE N & ALBION ST SB,0,33AALBSN,
36.231564,,EWIVISWF,-86.796079,,,,,EWING DR & VISTA LN WB,0,EWIVISWF,
36.160454,,DRDJOJNN,-86.801749,,,,DR D B TODD JR BV & JO JOHNSTON,DR DB TODD JR BLVD & JO JOHNSTON AVE NB,0,DRDJOJNN,
36.127309,0,THOCATWN,-86.703813,,,,,THOMPSON PL & CATINA DR WB,0,THOCATWN,
36.07108,,TODSAWWN,-86.94684,,,,,TODD PREIST DR & SAWYER BROWN RD WB,0,TODSAWWN,
36.209543,,ANDDESNN,-86.601961,,,,,ANDREW JACKSON PKWY & DES MOINES DR,0,ANDDESNN,
36.205174,,BRITALNN,-86.777841,,,,,BRICK CHURCH PIKE & TALBOTS CORNER,0,BRITALNN,
36.186309,,CLA26ASN,-86.818911,,,,CLARKSVILLE PIKE & 26TH AVE N,CLARKSVILLE PIKE & 26TH AVE SB,0,CLA26ASN,
36.237993,0,VAIROBEN,-86.769273,,,,VAILVIEW DR & UNNAMED STREET,VAILVIEW DR & ROBWOOD DR EB,0,VAIROBEN,
36.082531,,HARTAMEN,-86.710672,,,,,HARDING PL & TAMPA DR EB,0,HARTAMEN,
36.179851,0,16SORDSN,-86.741537,,,,,N 16TH ST & ORDWAY PL SB,0,16SORDSN,
36.204271,,MCGHUFWN,-86.729218,,,,,MCGAVOCK PIKE & HUFFINE ST WB,0,MCGHUFWN,
36.149624,,8ASDIVNN,-86.779058,,,,US HWY 31 & 8TH AVE S,8TH AVE S & DIVISION ST NB,0,8ASDIVNN,
36.14307,0,EDG15AEN,-86.790822,,,,,EDGEHILL AVE & 15TH AVE S EB,0,EDG15AEN,
36.228732,0,DICEWISF,-86.759498,,,,DICKERSON PK & EWING DR,DICKERSON PIKE & EWING DR SB,0,DICEWISF,
36.21722,0,MCGMUSWF,-86.6968,,,,I 40,MCGAVOCK PIKE & MUSIC VALLEY DR WB,0,MCGMUSWF,
36.169031,0,LEBFAIWF,-86.683471,,,,2364 LEBANON PIKE,LEBANON PIKE & FAIRWAY WB,0,LEBFAIWF,
36.27989,0,GXIEDGEN,-86.708677,,,,,EDGEMEADE STATION INBOUND,0,GXIEDGEN,
36.152461,,CHA39AEF,-86.832264,,,,CHARLOTTE & 39 AVE,CHARLOTTE AVE & 39TH AVE N EB,0,CHA39AEF,
36.184134,1,GXOEASTF,-86.748065,,,,706 GALLATIN AVE & EASTLAND AVE,EASTLAND STATION OUTBOUND,0,GXOEASTF,
36.169185,0,LEBFAIWN,-86.682242,,,,2406 LEBANON PIKE & FAIRWAY DR,LEBANON PIKE & FAIRWAY DR WB,0,LEBFAIWN,
36.121084,,FRAKIRSF,-86.775465,,,,,FRANKLIN PIKE & KIRKWOOD AVE SB,0,FRAKIRSF,
36.169855,,SHE8SEN,-86.756272,,,,,SHELBY AVE & S 8TH ST EB,0,SHE8SEN,
36.215769,,HAYDYENN,-86.833977,,,,HAYNES PARK DR & KINGVIEW DR,HAYNES PARK DR & DYER CT NB,0,HAYDYENN,
36.204013,,DICTRINM,-86.768942,,,,DICKERSON PK & E TRINITY LN,DICKERSON PIKE & E TRINITY LN NB,0,DICTRINM,
36.205694,,DICTRINN,-86.768557,,,,DICKERSON PK & E TRINITY LN,DICKERSON PIKE & E TRINTY LN NB,0,DICTRINN,
36.168965,0,WOON1SWF,-86.772827,,,,,WOODLAND ST & N 1ST ST WB,0,WOON1SWF,
36.185639,0,CLA25AEN,-86.817557,,,,CLARKSVILLE & 24 AVE,CLARKSVILLE PIKE & 25TH AVE N EB,0,CLA25AEN,
36.219947,0,GALCURSN,-86.72741,,,,,GALLATIN PIKE & CURDWOOD BLVD SB,0,GALCURSN,
36.087721,2,OLDWOONF,-86.920569,,,,367 OLD HICKORY BLVD & WOODBURY FALLS DR,OLD HICKORY BLVD & WOODBURY FALLS D,0,OLDWOONF,
36.134265,,21AFAISN,-86.801283,,,,21ST AV S & MAGNOLIA BV,21ST AVE S & FAIRFAX AVE SB,0,21AFAISN,
36.24654,0,DWMRTX,-86.757077,,,,DICKERSON PIKE & DICKERSON RD WALMART DRIVEWAY,DICKERSON RD WALMART EXIT,0,DWMRTX,
36.166036,0,UNI2AEF,-86.777419,,,,,UNION ST & 2ND AVE EB,0,UNI2AEF,
36.172433,,UND22AWM,-86.812156,,,,UNDERWOOD ST & 23RD AVE N,UNDERWOOD ST & 22ND AVE N WB,0,UND22AWM,
36.17253,,UND22AWN,-86.811402,,,,,UNDERWOOD ST & 22ND AVE N WB,0,UND22AWN,
36.192195,0,CLACLINN,-86.828462,,,,2890 CLARKSVILLE PIKE,CLARKSVILLE PIKE & CLIFF DR NB,0,CLACLINN,
36.185506,0,CLA25AWN,-86.817082,,,,CLARKSVILLE PK & 25TH AV N,CLARKSVILLE PIKE & 25TH AVE N WB,0,CLA25AWN,
36.169933,0,8A9ANM,-86.789091,,,,8TH AVE N & JEFFERSON,8TH AVE N & 9TH AVE N NB,0,8A9ANM,
36.207101,,MCGSTRWM,-86.719288,,,,MCGAVOCK PK,MCGAVOCK PIKE & STRATFORD AVE WB,0,MCGSTRWM,
36.173092,,UND21AWN,-86.810246,,,,UNDERWOOD ST & 21ST AV N,UNDERWOOD ST & 21ST AVE N WB,0,UND21AWN,
36.208029,,MCGSTRWN,-86.716987,,,,MCGAVOCK PK & STRATFORD AV,MCGAVOCK PIKE & STRATFORD AVE WB,0,MCGSTRWN,
36.165,0,CHA7AWN,-86.78406,,,,,CHARLOTTE AVE & 7TH AVE N WB,0,CHA7AWN,
36.17705,,25AFINNN,-86.816405,,,,,25TH AVE N & FINLAND ST NB,0,25AFINNN,
36.161002,,TEN51AWM,-86.849615,,,,TENNESSEE AV & 52ND AV N,TENNESSEE AVE & 51ST AVE N WB,0,TEN51AWM,
36.154948,,HERLINSN,-86.76389,,,,,HERMITAGE AVE & LINDSLEY AVE SB,0,HERLINSN,
36.177073,,ARTGARNF,-86.800529,,,,,ARTHUR AVE & GARFIELD ST NB,0,ARTGARNF,
36.152073,0,CHA51AWN,-86.84835,,,,5082 CHARLOTTE AVE & 51ST AVE,CHARLOTTE AVE & 51ST AVE N WB,0,CHA51AWN,
36.10985,,THOWINEN,-86.734791,,,,,THOMPSON LN & WINGATE AVE EB,0,THOWINEN,
36.111186,,THOEUGWN,-86.754258,,,,,THOMPSON LN & EUGENIA AVE WB,0,THOEUGWN,
36.074666,0,H70OLDEF,-86.91989,,,,7087 USHY 70S,HWY 70 S & OLD HICKORY BLVD EB,0,H70OLDEF,
36.150192,,WES21AEN,-86.801522,,,,WEST END AVE & 21ST AVE N,WEST END AVE & 21ST AVE S EB,0,WES21AEN,
36.151548,0,WES20AWN,-86.79923,,,,WEST END AV & 20TH AV S,WEST END AVE & 20TH AVE S WB,0,WES20AWN,
36.171184,0,DBTHEISF,-86.807413,,,,1279 DR DB TODD JR BLVD & HEIMAN ST,DR DB TODD BLVD & HEIMAN ST SB,0,DBTHEISF,
36.168806,0,LEBBRIWN,-86.685747,,,,,LEBANON PIKE & BRILEY PKWY WB,0,LEBBRIWN,
36.165606,,39AJOHNN,-86.83418,,,,39TH AV N & JOHN L DRIVER BV,39TH AVE N & JOHN L DRIVER BLVD NB,0,39AJOHNN,
36.079052,,WALBROEM,-86.720713,,,,,WALLACE RD & BROOKRIDGE TL EB,0,WALBROEM,
36.169117,0,WOON1SEN,-86.771786,,,,129 WOODLAND ST & 1ST ST S,WOODLAND ST & S 2ND ST EB,0,WOON1SEN,
36.203289,0,BATMEASN,-86.789279,,,,1816 BAPTIST WORLD CENTER DR & MEADE AVE,BAPTIST WORLD CENTER DR & MEADE DR SB,0,BATMEASN,
36.168564,0,SHE6SWM,-86.759938,,,,603 SHELBY AVE & 6TH ST S,SHELBY AVE & S 6TH ST WB,0,SHE6SWM,
36.218706,,HPKL,-86.834137,,,,,HAYNES PARK DR & KINGS LN NB,0,HPKL,
36.204256,,DICWTRSF,-86.769112,,,,DICKERSON & W TRINITY LANE,DICKERSON PIKE & W TRINITY LN SB,0,DICWTRSF,
36.142489,1,21AMEDSF,-86.800118,,,,21ST AV S & GARLAND AV,21ST AVE S & MEDICAL CENTER DR SB,0,21AMEDSF,
36.079939,,WALWILEF,-86.703564,,,,,WALLACE RD & WILLARD DR EB,0,WALWILEF,
36.074125,0,H70OLDWF,-86.923236,,,,70 S & OLD HARDING PK,HWY 70 S & OLD HARDING PIKE WB,0,H70OLDWF,
36.126133,1,NXIGLNRS,-86.752571,,,,NOLENSVILLE & GLENROSE,GLENROSE STATION INBOUND,0,NXIGLNRS,
36.127696,,HARBOSWN,-86.843826,,,,HARDING & WOODLAWN,HARDING PIKE & BOSLEY SPRINGS RD WB,0,HARBOSWN,
36.074995,1,H70OLDWN,-86.919547,,,,,HWY 70 & OLD HICKORY BLVD WB,0,H70OLDWN,
36.217237,,ROWBUENN,-86.819123,,,,ROWAN DRIVE & BUENA VISTA PK,ROWAN DR & BUENA VISTA PIKE NB,0,ROWBUENN,
36.145068,0,12AARCSF,-86.78644,,,,1037 12TH AVE & ARCHER ST,12TH AVE S & ARCHER ST SB,0,12AARCSF,
36.173071,0,MAI5STWN,-86.764954,,,,,MAIN ST & 5TH ST WB,0,MAI5STWN,
36.22127,,DICPINNN,-86.761726,,,,DICKERSON PK & PINE RIDGE DR,DICKERSON PIKE & PINE RIDGE DR NB,0,DICPINNN,
36.152592,,CHA39AWN,-86.833179,,,,CHARLOTTE & 39 AVE,CHARLOTTE AVE & 39TH AVE N WB,0,CHA39AWN,
35.993176,0,SMRY,-86.526609,,,,NOLAN & LOWRY,SMYRNA STARS & STRIKES,0,SMRY,
36.202074,,BAPHAYSF,-86.788515,,,,BAPTIST WORLD CTR DR & HAYNES MEADE CR,BAPTIST WORLD CENTER DR & HAYNES MEADE CR SB,0,BAPHAYSF,
36.079863,,WALWILWF,-86.703793,,,,,WALLACE RD & WILLARD DR WB,0,WALWILWF,
36.257763,0,FORFORSF,-86.704105,,,,FOREST PARK RD & COVENTRY WOODS DR,FOREST PARK & FOREST PARK APARTMENT,0,FORFORSF,
36.117949,0,HILGOLNF,-86.809911,,,,HILLSBORO PK & GOLF CLUB LN,HILLSBORO PIKE & GOLF CLUB LN NB,0,HILGOLNF,
36.195711,0,FERBRIWN,-86.776388,,,,35 FERN AVE & I 24,FERN AVE & BRICK CHURCH PK WB,0,FERBRIWN,
36.167232,,HER12AWN,-86.796321,,,,,HERMAN ST & 12TH AVE N WB,0,HER12AWN,
36.175601,1,GXO7AVEF,-86.757931,,,,809 MAIN ST & NEILL AVE,MAIN STREET STATION OUTBOUND,0,GXO7AVEF,
36.152788,,CHA33AEN,-86.823741,,,,US HWY 70 & 33RD AVE N,CHARLOTTE AVE & 33RD AVE N,0,CHA33AEN,
36.198278,,GREATHEF,-86.795193,,,,GREAT CIRCLE RD & CONNECTING ROAD,GREAT CIRCLE RD & ATHENS WAY EB,0,GREATHEF,
36.181662,,LEBDOWN,-86.642131,,,,,LEBANON PIKE & DOWNEY MEADE DR SB,0,LEBDOWN,
36.217766,,DICLORSN,-86.763171,,,,,DICKERSON PK & LORRAINE AVE SB,0,DICLORSN,
36.182177,,23ASEISN,-86.814445,,,,,23RD AVE N & SEIFRIED ST SB,0,23ASEISN,
36.13884,0,MURARLEM,-86.73271,,,,,MURFREESBORO PIKE & ARLINGTON AVE E,0,MURARLEM,
36.259274,,CHEWARNF,-86.678827,,,,,CHEYENNE BLVD & WARRIOR RD NB,0,CHEWARNF,
36.016241,,MURVETEF,-86.561595,,,,,MURFREESBORO PIKE & VETERANS MEMORIAL,0,MURVETEF,
36.140116,0,12AHORNF,-86.787477,,,,1289 12TH AVE & HORTON AVE,12TH AVE S & HORTON AVE NB,0,12AHORNF,
36.152929,0,CHA33AWF,-86.824502,,,,3304 CHARLOTTE AVE & 33RD AVE,CHARLOTTE AVE & 33RD AVE WB,0,CHA33AWF,
36.160003,,MOR57ASN,-86.857182,,,,5707 MORROW RD & 57TH AVE,MORROW RD & 57TH AVE N SB,0,MOR57ASN,
36.139535,,KARBRIEN,-86.700785,,,,,KAREN DR & BRILEY PKWY EB,0,KARBRIEN,
36.124353,,BRAROSSF,-86.765931,,,,BRANSFORD AVE & MARTIN ST,BRANSFORD AVE  & ROSEDALE AVE SB,0,BRAROSSF,
36.15387,1,CXI2831,-86.818414,,,,CHARLOTTE AV & 28TH AV N,28TH/31ST AVE CONNECTOR STATION INBOUND,0,CXI2831,
36.202834,,OPROPRNM,-86.693524,,,,PARKING LOT & DRIVEWAY,OPRY MILLS FOOD COURT,0,OPROPRNM,
36.166445,,17AJACNN,-86.803208,,,,17TH AV N & JACKSON ST,17TH AVE N & JACKSON ST NB,0,17AJACNN,
36.167637,,LEBDONEN,-86.663513,,,,US HWY 70 & LEBANON PIKE,LEBANON PIKE & DONELSON PIKE EB,0,LEBDONEN,
36.167014,0,LEBDONEM,-86.660909,,,,2832 LEBANON PIKE,LEBANON PIKE & DONELSON PIKE EB,0,LEBDONEM,
36.168448,0,LEBBRIEF,-86.686656,,,,2260 LEBANON PIKE,LEBANON PIKE & BRILEY PKWY EB,0,LEBBRIEF,
36.179973,0,DBTBUCNN,-86.810904,,,,1789 DR DB TODD JR BLVD & BUCHANAN ST,DR DB TODD BLVD & BUCHANAN ST NB,0,DBTBUCNN,
36.076953,1,HWYSAWEN,-86.94581,,,,,HWY 70 S & SAWYER BROWN RD EB,0,HWYSAWEN,
36.13162,0,NOLWOONF,-86.756438,,,,US HWY 31 ALT & WOODYCREST AVE,WOODYCREST STATION INBOUND,0,NOLWOONF,
36.072852,1,MXIBELL,-86.636862,,,,2636 MURFREESBORO PIKE,BELL STATION INBOUND,0,MXIBELL,
36.186352,,CLA26ANN,-86.818653,,,,CLARKSVILLE & 26 AVE,CLARKSVILLE PIKE & 26TH AVE NB,0,CLA26ANN,
36.246339,,BRIBRIEM,-86.771284,,,,,BRICKMONT DR & BRICKMONT CT EB,0,BRIBRIEM,
36.160713,,TENMORWN,-86.857962,,,,TENNESSEE AV & 57TH AV N,TENNESSEE AVE & MORROW RD WB,0,TENMORWN,
36.194476,,LISDOUNF,-86.763076,,,,,LISCHEY AVE & DOUGLAS AVE NB,0,LISDOUNF,
36.152984,,BRO17AEN,-86.794235,,,,BROADWAY & 17 AVE,BROADWAY AVE & 17TH AVE S EB,0,BRO17AEN,
36.068213,,NOLHAYSN,-86.719328,,,,US HWY 31 ALT & US HWY 41 ALT,NOLENSVILLE PIKE & HAYWOOD LN SB,0,NOLHAYSN,
36.089861,,H70CARSN,-86.890964,,,,,HWY 70 S & CARNAVON PKWY WB,0,H70CARSN,
36.178287,,DBT17ANN,-86.810246,,,,,DR D.B. TODD JR BLVD & 17TH AVE NB,0,DBT17ANN,
36.302603,,GALCONNN,-86.691876,,,,N GALLATIN PK & TWIN HILLS DR,GALLATIN PIKE & CONFERENCE DR NB,0,GALCONNN,
36.06914,,BAUGREEM,-86.935704,,,,,BAUGH RD & GREEN MEADOWS EB,0,BAUGREEM,
36.139339,,8AHAMSN,-86.778422,,,,8TH AVENUE & HAMILTON,8TH AVE S & HAMILTON AVE SB,0,8AHAMSN,
36.153658,1,WES17AEN,-86.794441,,,,WEST END AV & 17TH AV S,WEST END AVE & 17TH AVE S EB,0,WES17AEN,
36.174309,,LEBSPRSN,-86.647406,,,,,LEBANON PIKE & SPRING PLACE DR SB,0,LEBSPRSN,
36.206628,,TRIHAMEN,-86.779578,,,,,W TRINITY LN & HAMPTON ST EB,0,TRIHAMEN,
36.161732,0,5ACOMNN,-86.779169,,,,5TH AVE N & OPRY PL,5TH AVE N & COMMERCE ST NB,0,5ACOMNN,
36.083767,0,MURBROSN,-86.647361,,,,,MURFREESBORO PIKE & BROOKSBORO TER,0,MURBROSN,
36.088579,1,MXONASHB,-86.649765,,,,,NASHBORO STATION OUTBOUND,0,MXONASHB,
36.104937,0,HILRICSN,-86.808859,,,,1882 HILLMONT DR,HILLMONT DR & RICHARD JONES RD,0,HILRICSN,
36.200654,0,BAPSEMSN,-86.786854,,,,BAPTIST WORLD CTR DR & SEMINARY ST,BAPTIST WORLD CENTER & SEMINARY SB,0,BAPSEMSN,
36.149179,0,WHICHASF,-86.858044,,,,375 WHITE BRIDGE PIKE,WHITE BRIDGE PIKE & CHARLOTTE SHONE,0,WHICHASF,
36.161272,0,MLK,-86.800248,,,,1702 JO JOHNSTON AVE & 17TH AVE,MARTIN LUTHER KING SCHOOL,0,MLK,
36.077742,,HWYSAWWM,-86.947539,,,,HWY 70 S & BELLEVUE CENTER,HWY 70 S & SAWYER BROWN WB,0,HWYSAWWM,
36.234559,0,MCSHAM,-86.367777,,,,,HAMILTON SPRINGS STATION,0,MCSHAM,
36.206161,0,BAPYOUNN,-86.790788,,,,2116 BAPTIST WORLD CENTER DR & GOOCH ST,BAPTIST WORLD CENTER DR & YOUNGS LN NB,0,BAPYOUNN,
36.096224,,H70PEREN,-86.877722,,,,HIGHWAY 70 S & PERCY WARNER BV,HWY 70 S & PERCY WARNER BLVD EB,0,H70PEREN,
36.076287,0,H70CHIWN,-86.915851,,,,7015 USHY 70S & CHIMNEY HL,HWY 70 S & CHIMNEY HILL WB,0,H70CHIWN,
36.261558,0,DICTUCSN,-86.757642,,,,,DICKERSON PK & TUCKAHOE DR SB,0,DICTUCSN,
36.167152,,HER12AEN,-86.796343,,,,,HERMAN ST & 12TH AVE N EB,0,HER12AEN,
36.217997,,KINTEMWF,-86.843251,,,,KINGS LN & CLARKSVILLE PIKE,KINGS LN & TEMPLE CHURCH PARK-N-RIDE,0,KINTEMWF,
36.071087,0,NOLCOTSN,-86.72347,,,,NOLENSVILLE PK & BASS AV,NOLENSVILLE PIKE & COTTON LN SB,0,NOLCOTSN,
36.390575,,PLSNTVW,-87.020703,,,,,PLEASANT VIEW PARK-&-RIDE,0,PLSNTVW,
36.18018,,MERTRESN,-86.769153,,,,MERIDIAN & TRUETLAN,MERIDIAN ST & TREUTLAN ST SB,0,MERTRESN,
36.267823,,DUPSEAWN,-86.701859,,,,,N DUPONT AVE & SEALEY DR WB,0,DUPSEAWN,
36.242637,0,BRIWORSN,-86.736663,,,,BRIARVILLE RD & CHERON RD RAMP,BRIARVILLE RD & CREATIVE WAY SB,0,BRIWORSN,
36.129503,1,MURMLWWN,-86.714454,,,,US HWY 41 & STATE HWY 1,MURFREESBORO PK & MILLWOOD,0,MURMLWWN,
36.237217,0,VAIQUAEN,-86.770335,,,,,VAILVIEW DR & QUALYNN DR EB,0,VAIQUAEN,
36.145346,1,WES28AEM,-86.811538,,,,WEST END AV & 27TH AV N,WEST END AVE & 28TH AVE S EB,0,WES28AEM,
36.167003,1,MCSDONEL,-86.666539,,,,NASHVILLE & EASTERN RR,DONELSON STATION,0,MCSDONEL,
36.218152,,TUCHUMNN,-86.826347,,,,TUCKER ROAD & HUMMINGBIRD DR,TUCKER RD & HUMMINGBIRD DR NB,0,TUCHUMNN,
36.150156,0,ELMACONN,-86.700202,,,,ELM HILL PK & ACORN DR,ELM HILL PIKE & ACORN DR NB,0,ELMACONN,
36.222513,,LYTBOYNN,-86.827134,,,,,LYTLE DR & BOYD DR NB,0,LYTBOYNN,
36.146854,0,WES25AEN,-86.808497,,,,WEST END AV & 25TH AV S,WEST END AVE & 25TH AVE S EB,0,WES25AEN,
36.13057,0,BNA,-86.66578,,,,TERMINAL DR & TRUMPET CIR,NASHVILLE INTERNATIONAL AIRPORT,0,BNA,
36.307973,1,GALWMRT,-86.685963,,,,,WALMART GALLATIN PIKE,0,GALWMRT,
36.219365,,DICALHSF,-86.762615,,,,DICKERSON PK & ALHAMBRA CR,DICKERSON PIKE & ALHAMBRA CIR SB,0,DICALHSF,
36.15053,,ACOELMSM,-86.70028,,,,,ACORN DR & ELM HILL PK SB,0,ACOELMSM,
36.151596,,ACOELMSN,-86.700375,,,,,ACORN DR & ELM TREE DR SB,0,ACOELMSN,
36.153276,0,ELMATRWM,-86.688346,,,,,ELM HILL PIKE & ATRIUM WAY WB,0,ELMATRWM,
36.152446,,MORALASM,-86.852286,,,,,MORROW RD & ALABAMA AVE SB,0,MORALASM,
36.155318,,MORGEOSN,-86.8529,,,,,MORROW RD & GEORGIA AVE SB,0,MORGEOSN,
36.169972,0,EDTHEINF,-86.82122,,,,1231 ED TEMPLE BLVD & HEIMAN ST,ED TEMPLE BLVD & HEIMAN ST NB,0,EDTHEINF,
36.161031,,TEN48AEN,-86.84537,,,,TENNESSEE & 48TH AVE NORTH,TENNESSEE AVE & 48TH AVE N EB,0,TEN48AEN,
36.121755,0,BRALIGSF,-86.765561,,,,BRANSFORD AVE & BERRY RD,BRANSFORD AVE & LIGON DR SB,0,BRALIGSF,
36.173019,0,2ASTONF,-86.782108,,,,2ND AVE N & STOCKYARD ST,2ND AVE & STOCKYARD BLVD NB,0,2ASTONF,
36.203518,,ANDRVISF,-86.606854,,,,ANDREW JACKSON PW & RACHELS VIEW,ANDREW JACKSON & RACHELS VIEW SB,0,ANDRVISF,
36.144832,,ELMFESWF,-86.745056,,,,,ELM HILL PIKE & FESSLERS LN WB,0,ELMFESWF,
36.269105,0,BELBELWM,-86.762295,,,,1114 BELL GRIMES LN,BELL GRIMES LN & BELLSHIRE ELEMENTA,0,BELBELWM,
36.151613,0,FAIFAIE,-86.75675,,,,,FAIN ST & FAIRFIELD AVE EB,0,FAIFAIE,
36.154112,,HERCAUEM,-86.745251,,,,HERMITAGE & IN FRONT OF NES SUB STATION,HERMITAGE AVE & CAULEY AVE EB,0,HERCAUEM,
36.143101,,WHICORSF,-86.8578,,,,WHITE BRIDGE & CORBITT,WHITE BRIDGE PIKE & CORBETT LN SB,0,WHICORSF,
36.078448,0,H70ERIWF,-86.909294,,,,RAMP & USHY 70S,HWY 70 S & ERIN LN WB,0,H70ERIWF,
36.162295,1,CXINGULC,-86.789985,,,,1079 CHARLOTTE AVE,11TH AVE / N GULCH STATION INBOUND,0,CXINGULC,
36.169007,,JEF21AEN,-86.809693,,,,JEFFERSON ST & 21ST AV N,JEFFERSON ST & 21ST AVE N EB,0,JEF21AEN,
36.21547,0,KENARDNN,-86.719777,,,,3994 KENNEDY AVE & ARDEE AVE,KENNEDY AVE & ARDEE AVE NB,0,KENARDNN,
36.066713,,BELMORSN,-86.636764,,,,BELL RD & MORRIS GENTRY BV,BELL RD & MORRIS GENTRY BLVD SB,0,BELMORSN,
36.166768,1,MCC5_8,-86.781424,,,MTAMCC,UNNAMED & 5TH AVE N,CENTRAL 5TH AVE - BAY 8,0,MCC5_8,
36.206709,0,ANDHIGNN,-86.605582,,,,ANDREW JACKSON PW & RACHELS TL,ANDREW JACKSON PKWY & HIGHLAND VIEW DR NB,0,ANDHIGNN,
36.154402,,LEBOMOEN,-86.739793,,,,,LEBANON PIKE & OMOHUNDRO PL EB,0,LEBOMOEN,
36.153458,,LEBOMOEM,-86.733717,,,,,LEBANON PIKE & OMOHUNDRO PL EB,0,LEBOMOEM,
36.249581,,CHECHENN,-86.670072,,,,,CHEYENNE BLVD & CANTON PASS NB,0,CHECHENN,
36.165374,0,HER16AEN,-86.800325,,,,HERMAN ST & 16TH AV N,HERMAN ST & 16TH AVE N EB,0,HER16AEN,
36.213417,,HAYCHANN,-86.833893,,,,,HAYNES PARK DR & CHARLES CT NB,0,HAYCHANN,
36.154424,,LEBFESN,-86.743072,,,,,LEBANON PIKE & FESSLERS LN WB,0,LEBFESN,
36.144609,0,ELMFESEN,-86.744305,,,,,ELM HILL PIKE & FESSLERS LN EB,0,ELMFESEN,
36.156645,,HERLEAEN,-86.768808,,,,,HERMITAGE AVE & LEA AVE EB,0,HERLEAEN,
36.183464,,PORFRANM,-86.732503,,,,,PORTER RD & FRANKLIN AVE NB,0,PORFRANM,
36.132429,,MURWILEN,-86.719647,,,,MURFREESBORO & WILHAGAN ROAD,MURFREESBORO PIKE & WILHAGAN RD EB,0,MURWILEN,
36.137605,0,WED21AWN,-86.800191,,,,,WEDGEWOOD AVE & 21ST AVE S WB,0,WED21AWN,
36.165526,,HER16AWN,-86.800157,,,,,HERMAN ST & 16TH AVE N WB,0,HER16AWN,
36.115327,,GRABATSN,-86.792019,,,,GRANNY WHITE PK & BATTLEFIELD DR,GRANNY WHITE PIKE & BATTLEFIELD DR,0,GRABATSN,
36.208326,0,DICGRISN,-86.767458,,,,DICKERSON PK & GRIZZARD AVE,DICKERSON PIKE & GRIZZARD AVE SB,0,DICGRISN,
36.079101,,WALTURWN,-86.708119,,,,,WALLACE RD & TURLEY DR WB,0,WALTURWN,
36.156152,,DEM10AEM,-86.782377,,,,DEMONBREUN ST & 9TH AV S,DEMONBREUN ST & 10TH AVE S,0,DEM10AEM,
36.152706,,MASAPPWN,-86.704406,,,,MASSMAN DR & MOLLOY ST,MASSMAN DR & APPLETON DR EB,0,MASAPPWN,
36.068963,0,BAUBELWF,-86.941707,,,,805 TODD PREIS DR & BAUGH RD,BAUGH RD & BELLVUE RD WB,0,BAUBELWF,
36.153681,,LEBOMOWN,-86.733762,,,,,LEBANON PIKE & OMOHUNDRO PL WB,0,LEBOMOWN,
36.112227,0,THOBRAWM,-86.764816,,,,,THOMPSON LN & BRANSFORD DR WB,0,THOBRAWM,
36.156939,,LEBOMDEN,-86.709065,,,,,LEBANON PIKE & OMOHUNDRO DR EB,0,LEBOMDEN,
36.15688,0,LEBOMOWF,-86.709648,,,,1884 LEBANON PIKE,LEBANON PIKE & OMOHUNDRO DR WB,0,LEBOMOWF,
36.16483,,6AVDEASN,-86.782945,,,,6TH AVE N & UNION ST,6TH AVE & DEADERICK ST SB,0,6AVDEASN,
36.144455,1,PREWILNN,-86.880236,,,,PREMIER DR & 48TH AV N,PREMIER DR & WILCLAY DR NB,0,PREWILNN,
36.172506,,LEBDISEF,-86.649527,,,,,LEBANON PIKE & DISPAYNE DR EB,0,LEBDISEF,
36.14502,2,MASELMSN,-86.711187,,,,,MASSMAN DR & ELM HILL PIKE SB,0,MASELMSN,
36.194256,,PORBRANM,-86.725595,,,,PORTER RD & TURNER ST,PORTER RD & BRANCH ST NB,0,PORBRANM,
36.143655,,31AHEDSN,-86.816301,,,,,31ST AVE N AND HEDRICK ST SB,0,31AHEDSN,
36.131033,0,12ADOUNF,-86.788677,,,,2095 S 12TH AVE & DOUGLAS AVE S,12TH AVE S & DOUGLAS AVE NB,0,12ADOUNF,
36.137973,,WHIKNOSN,-86.857829,,,,WHITE BRIDGE PK & KNOB RD,WHITE BRIDGE PIKE & KNOB DR SB,0,WHIKNOSN,
36.078285,1,H70ERIEN,-86.909009,,,,,HWY 70 S & ERIN LN EB,0,H70ERIEN,
36.15332,0,HERKEIEN,-86.751144,,,,,HERMITAGE AVE & KEITH ST EB,0,HERKEIEN,
36.157299,0,KOR4AVWN,-86.774558,,,,,KOREAN VETS BLVD & 4TH AVE WB,0,KOR4AVWN,
36.138701,,BLANATWN,-86.810781,,,,,BLAKEMORE AVE & NATCHEZ TRC WB,0,BLANATWN,
36.175714,0,1SSPRSM,-86.774535,,,,252 1ST ST N,N 1ST ST & SPRING ST SB,0,1SSPRSM,
36.140507,0,NXORAINS,-86.763861,,,,4TH AV S & RAINS AV,RAINS STATION OUTBOUND,0,NXORAINS,
36.195922,0,MAIFRENF,-86.817672,,,,683 MAINSTREAM DR,MAINSTREAM DR & FREELAND ST RD NB,0,MAIFRENF,
36.178443,,DEL26AEF,-86.819095,,,,,DELK AVE & 26TH AVE N WB,0,DEL26AEF,
36.171202,,SHE11SEN,-86.750954,,,,,SHELBY AVE & S 11TH ST EB,0,SHE11SEN,
36.15333,0,LAFEWIEN,-86.775805,,,,,LAFAYETTE ST & EWING AVE SB,0,LAFEWIEN,
36.208232,,DICQUENN,-86.767299,,,,DICKERSON PK & QUEEN AV,DICKERSON PIKE & QUEEN AVE NB,0,DICQUENN,
36.114457,,ETHGLESF,-86.719833,,,,,E THOMPSON LN & GLENROSE SB,0,ETHGLESF,
36.081379,0,WALLINWF,-86.702372,,,,,WALLACE RD & LINBAR DR WB,0,WALLINWF,
36.248661,0,SKYSKYWN,-86.748798,,,,826 OLD DUE WEST AVE & SKYLINE MEMORIAL CT,SKYLINE RIDGE DR & SKYLINE HOSP WB,0,SKYSKYWN,
36.144373,,21AEDGNF,-86.799749,,,,21ST AV S & EDGEHILL AV,21ST AVE S & EDGEHILL AVE NB,0,21AEDGNF,
36.112817,,GRANALNN,-86.792321,,,,GRANNY WHITE PK & NOELTON AV,GRANNY WHITE PIKE & NOELTON AVE NB,0,GRANALNN,
36.144522,1,PREWILSF,-86.880339,,,,,PREMIER DR & WILCLAY DR SB,0,PREWILSF,
36.162858,,8AVUNINN,-86.784621,,,,8TH AV N & UNION ST,8TH AVE N & UNION ST NB,0,8AVUNINN,
36.219326,,BUEHUMSN,-86.821003,,,,BUENA VISTA PIKE & HUMMINGBIRD DRIVE,BUENA VISTA PIKE & HUMMINGBIRD DR S,0,BUEHUMSN,
36.132167,0,WALMARTC,-86.906837,,,,PARKING LOT & 6TH AVE N,WALMART,0,WALMARTC,
36.168831,,10AHERNN,-86.792339,,,,10TH AV N & HERMAN ST,10TH AVE N & HERMAN ST NB,0,10AHERNN,
36.205043,0,MCGGALWN,-86.73737,,,,1109 MCGAVOCK PIKE & THOMAS AVE,MCGAVOCK PIKE & GALLATIN PIKE WB,0,MCGGALWN,
36.172821,0,LEBDISWN,-86.649359,,,,,LEBANON PIKE & DISPAYNE DR SB,0,LEBDISWN,
36.12615,,BRACRANF,-86.765965,,,,,BRANSFORD AVE & CRAIGHEAD ST NB,0,BRACRANF,
36.150359,1,NXILAFYT,-86.76764,,,,2ND AV S & CAMERON ST,LAFAYETTE STATION INBOUND,0,NXILAFYT,
36.185733,,MERWILSN,-86.768284,,,,,MERIDIAN ST & WILBURN ST SB,0,MERWILSN,
36.172643,,1SJAMNM,-86.773761,,,,N 1ST ST & MAIN ST,N 1ST ST & JAMES ROBERTSON PKWY NB,0,1SJAMNM,
36.180106,,BUC15AWN,-86.808642,,,,BUCHANAN ST & 15TH AV N,BUCHANAN ST & 15TH AVE N WB,0,BUC15AWN,
36.19154,1,DICRICSN,-86.772852,,,,1116 DICKERSON PIKE & RICHARDSON AVE,DICKERSON PIKE & RICHARDSON AVE SB,0,DICRICSN,
36.163872,0,ALB30AEF,-86.822059,,,,2976 ALBION ST & 30TH AVE,ALBION ST & 30TH AVE N EB,0,ALB30AEF,
36.193224,1,GXODOUGN,-86.743976,,,,1312 GALLATIN AVE & STRAIGHTWAY AVE,DOUGLAS STATION OUTBOUND,0,GXODOUGN,
36.149997,,CXIWTBRG,-86.858261,,,,,WHITE BRIDGE STATION INBOUND,0,CXIWTBRG,
36.157887,,11APORNN,-86.786591,,,,302 11TH AVE & PORTER ST,11TH AVE & PORTER ST NB,0,11APORNN,
36.190291,0,COW901SN,-86.781269,,,,952 COWAN ST,901 COWAN ST SB,0,COW901SN,
36.142249,0,CHEFORWN,-86.775425,,,,CHESTNUT ST & FORT NEGLEY BV,CHESTNUT ST & FORT NEGLEY BLVD WB,0,CHEFORWN,
36.152786,,MASAPPWM,-86.704462,,,,,MASSMAN DR & APPLETON DR WB,0,MASAPPWM,
36.196629,,LISMARNF,-86.762686,,,,,LISCHEY AVE & MARIE ST NB,0,LISMARNF,
36.010319,,MURFEREF,-86.543967,,,,5544 USHY 41 & FERGUS RD,MURFREESBORO PK & FERGUS RD,0,MURFEREF,
36.151061,0,20AWESNN,-86.799021,,,,20TH AV S & WEST END AV,20TH AVE S & WEST END AVE NB,0,20AWESNN,
36.133289,,BILTAPTS,-86.701186,,,,510 GLASTONBURY RD & BRILEY PKWY,BILTMORE APARTMENTS AT GLASTONBURY & MASSMAN,0,BILTAPTS,
36.163938,0,5AVCHUNM,-86.780627,,,,5TH AVE N & CHURCH ST,5TH AVE N & THE ARCADE NB,0,5AVCHUNM,
36.163054,0,5AVCHUNN,-86.780078,,,,5TH AVE N & OPRY PL,5TH AVE N & CHURCH ST NB,0,5AVCHUNN,
36.055201,1,MXOZELID,-86.642465,,,,,ZELIDA STATION OUTBOUND,0,MXOZELID,
36.18533,,LEBJACEM,-86.636017,,,,,LEBANON PIKE & JACKSON DOWNS BLVD E,0,LEBJACEM,
36.158381,,40ACLISN,-86.834411,,,,40 AVE & CLIFTON,40TH AVE N & CLIFTON AVE SB,0,40ACLISN,
36.182108,,LEBJACEF,-86.640891,,,,LEBANON PK & JACKSON DOWNS BLVD,LEBANON PIKE & JACKSON DOWNS BLV D,0,LEBJACEF,
36.184783,,MERARRNN,-86.768292,,,,,MERIDIAN ST & ARRINGTON ST NB,0,MERARRNN,
36.080171,,MURSHISM,-86.645483,,,,MURFREESBORO & MORTWAY,MURFREESBORO PIKE & SHIAWAY DR SB,0,MURSHISM,
36.14304,0,WES31AWN,-86.815175,,,,3062 WEST END AVE,WEST END AVE & 31ST AVE N WB,0,WES31AWN,
36.26144,0,DICTUCNF,-86.757429,,,,3740 DICKERSON PIKE & TUCKAHOE DR,DICKERSON PIKE & TUCKAHOE DR NB,0,DICTUCNF,
36.098019,1,NXOVERTS,-86.738758,,,,US HWY 31 ALT & VERITAS ST,VERITAS STATION OUTBOUND,0,NXOVERTS,
36.069199,,BAUSHEWN,-86.936292,,,,734 BAUGH RD,BAUGH RD & SHEFFIELD SQ WB,0,BAUSHEWN,
36.14195,,EDGPEDWF,-86.783867,,,,,EDGE HILL AVE & PEDWALK WB,0,EDGPEDWF,
36.253528,0,GALEMMSN,-86.716746,,,,889 GALLATIN PIKE S & EMMITT AVE,S GALLATIN PIKE & EMMITT AVE SB,0,GALEMMSN,
36.133499,,WEDMARWN,-86.770303,,,,,WEDGEWOOD AVE & MARTIN ST WB,0,WEDMARWN,
36.166513,0,33AJOHNM,-86.82674,,,,1175 33RD AVE & CLOVER ST,33RD AVE N & JOHN A MERRITT BLVD NB,0,33AJOHNM,
36.13214,0,MASKIPNM,-86.700675,,,,,MASSMAN DR & KIPLING DR NB,0,MASKIPNM,
36.197284,,ANDTYLNN,-86.608466,,,,ANDREW JACKSON PW & WEBER RD,ANDREW JACKSON PKWY & TYLER DR NB,0,ANDTYLNN,
36.140666,,WESACKEN,-86.817509,,,,,WEST END AVE & ACKLEN PARK DR EB,0,WESACKEN,
36.130649,,MASKIPNF,-86.700083,,,,,MASSMAN DR & KIPLING DR NB,0,MASKIPNF,
36.168367,,HAR8AWF,-86.788962,,,,,HARRISON ST & 8TH AVE N WB,0,HAR8AWF,
36.169948,0,EDTHEISN,-86.821455,,,,1231 ED TEMPLE BLVD & HEIMAN ST,ED TEMPLE BLVD & HEIMAN ST SB,0,EDTHEISN,
36.182047,,26ASALNN,-86.819382,,,,,26TH AVE N & SALEM MASON DR NB,0,26ASALNN,
36.149914,0,28APARNN,-86.817829,,,,,28TH AVE & PARK PLZ NB,0,28APARNN,
36.156172,0,NXOPBODY,-86.774124,,,,477 4TH AVE & PEABODY ST,PEABODY STATION OUTBOUND,0,NXOPBODY,
36.11203,,THOEIRWN,-86.762728,,,,,THOMPSON LN & E IRIS DR WB,0,THOEIRWN,
36.058921,0,NOLTUSNN,-86.716075,,,,NOLENSVILLE PK & TUSCULUM RD,NOLENSVILLE PIKE & TUSCULUM RD NB,0,NOLTUSNN,
36.104763,,GRAMAPNF,-86.79612,,,,,GRANNYWHITE PIKE & MAPLEHURST AVE N,0,GRAMAPNF,
36.164543,,DRDHERNF,-86.804504,,,,,DR DB TODD & HERMOSA NB,0,DRDHERNF,
36.129801,0,WBBTNF,-86.85491,,,,,WHITE BRIDGE RD & BROOKWOOD TERRACE,0,WBBTNF,
36.139136,,8AVHAMNN,-86.778286,,,,8TH AVENUE S & LYNWOOD,8TH AVE S & HAMILTON AVE NB,0,8AVHAMNN,
36.16394,0,ALB30AWN,-86.822222,,,,2988 ALBION ST & 30TH AVE,ALBION ST & 30ST AVE N WB,0,ALB30AWN,
36.163796,1,4AVCHUSN,-86.779079,,,,,4TH AVE N & CHURCH ST SB,0,4AVCHUSN,
36.211336,0,WHINOCWN,-86.797259,,,,2390 WHITES CREEK PIKE & NOCTURNE DR E,WHITES CREEK PIKE & W NOCTURNE DR W,0,WHINOCWN,
36.146548,,31ALONSN,-86.816414,,,,,31ST AVE N & LONG BLVD SB,0,31ALONSN,
36.186527,,CAS9AVEN,-86.804188,,,,,CASS ST & 9TH AVE N EB,0,CAS9AVEN,
36.256502,1,GXOMADWG,-86.71411,,,,665 GALLATIN PIKE S & NEELYS BEND RD,MADISON STATION OUTBOUND,0,GXOMADWG,
36.073501,0,COLHWYSF,-86.935334,,,,689 COLICE JEANNE RD,COLICE JEANNE RD & HWY 70 SB,0,COLHWYSF,
36.203485,0,BUEYOUNN,-86.820885,,,,2595 BUENA VISTA PIKE & YOUNGS LN,BUENA VISTA PK & YOUNGS LN NB,0,BUEYOUNN,
36.130773,,NXOWDCST,-86.755878,,,,NOLENSVILLE & WOODY CREST,WOODYCREST STATION OUTBOUND,0,NXOWDCST,
36.244647,0,SKYLINE,-86.749565,,,,RAMP,SKYLINE MEDICAL CENTER WB,0,SKYLINE,
36.130158,0,21ABLANN,-86.80197,,,,21ST AV S & BLAIR BV,21ST AVE S & BLAIR BLVD NB,0,21ABLANN,
36.204035,0,MCGGLEWN,-86.726778,,,,1263 MCGAVOCK PIKE & GLENMEADE DR,MCGAVOCK PIKE & GLENMEADE DR WB,0,MCGGLEWN,
36.263393,0,MYAEOLWN,-86.69033,,,,61 MYATT DR & RANDY RD,MYATT DR & E OLD HICKORY BLVD WB,0,MYAEOLWN,
36.145551,0,MURALUEF,-86.752862,,,,352 MURFREESBORO PIKE & LESTER AVE,MURFREESBORO PIKE & ALUMNI DR EB,0,MURALUEF,
36.159231,0,DRDPEANF,-86.800963,,,,18TH AVE N & 18TH AVE,DR DB TODD JR BLVD & PEARL ST NB,0,DRDPEANF,
36.078807,0,H70BAPWM,-86.951223,,,,HWY 70 S & BAPTIST BELLEVUE MEDICAL CENTER,HWY 70 S & BAPTIST BELLEVUE MEDICAL WB,0,H70BAPWM,
36.253312,0,NEEHOWEN,-86.698326,,,,,NEELYS BEND RD & HOWSE AVE EB,0,NEEHOWEN,
36.128444,,12AASHSF,-86.789105,,,,12TH AV S & ASHWOOD AV,12TH AVE S & ASHWOOD AVE SB,0,12AASHSF,
36.14392,1,ELMPOPWN,-86.727437,,,,1400 ELM HILL PIKE & POPLAR ST,ELM HILL PIKE & POPLAR ST WB,0,ELMPOPWN,
36.151711,0,FAILEWEN,-86.758107,,,,FAIN ST & UNKNOWN AL,FAIN ST & LEWIS ST EB,0,FAILEWEN,
36.075888,0,OLDBELSM,-86.921023,,,,OLD HICKORY BV & BELLE FOREST CR,OLD HICKORY BLVD & BELLE FOREST CR SB,0,OLDBELSM,
36.186802,0,MERCLENN,-86.768004,,,,,MERIDIAN ST & CLEVELAND ST NB,0,MERCLENN,
36.216458,0,WHIMALSF,-86.802178,,,,,WHITES CREEK PIKE & MALTA DR SB,0,WHIMALSF,
36.129996,1,21SBLASF,-86.802285,,,,21ST AV S & BLAIR BV,21ST AVE S & BLAIR SB,0,21SBLASF,
36.153539,0,28ACHASF,-86.818245,,,,,28TH AVE & CHARLOTTE AVE SB,0,28ACHASF,
36.237828,0,WALTPR,-86.724696,,,,,WALTON LN P&R,0,WALTPR,
36.075055,,NOLFLOSN,-86.725073,,,,NOLENSVILLE PK & FLORA MAXWELL RD,NOLENSVILLE PIKE & FLORA MAXWELL RD,0,NOLFLOSN,
36.157518,,MORILLSN,-86.853558,,,,MORROW RD & UNKNOWN AL,MORROW RD & ILLINOIS AVE SB,0,MORILLSN,
36.111799,,THOEIREF,-86.762652,,,,THOMPSON & E IRIS DR,THOMPSON LN & EAST IRIS DR,0,THOEIREF,
36.151873,0,CHAFAINN,-86.761954,,,,CHARLES E DAVIS BV & FAIN ST,CHARLES DAVID BLVD & FAIN ST NB,0,CHAFAINN,
36.141531,0,31AVANWF,-86.814575,,,,,31ST AVE & VANDERBILT PL WB,0,31AVANWF,
36.087288,1,HARANTWF,-86.692935,,,,HARDING PL & ANTIOCH PIKE,HARDING PL & ANTIOCH PK WB,0,HARANTWF,
36.147948,,21ABROSF,-86.799364,,,,21ST AVE S & BROADWAY,21ST AVE & BROADWAY AVE SB,0,21ABROSF,
36.108423,,POWPOWSN,-86.765856,,,,,POWELL AVE & POWELL PL SB,0,POWPOWSN,
36.186902,,CLE3RDEN,-86.766241,,,,,CLEVELAND ST & N 3RD ST EB,0,CLE3RDEN,
36.168499,,HERWARWN,-86.793355,,,,,HERMAN ST & WARREN ST WB,0,HERWARWN,
36.125798,,FRACRASF,-86.777029,,,,US HWY 31 & STATE HWY 6,FRANKLIN PK & CRAIGHEAD ST SB,0,FRACRASF,
36.176802,0,16SWOONN,-86.741874,,,,8 16TH ST S & WOODLAND ST,16TH ST & WOODLAND ST NB,0,16SWOONN,
36.14382,0,ELMTWIEM,-86.735244,,,,,ELM HILL PIKE & TWIN ELMS CT EB,0,ELMTWIEM,
36.196073,0,LISMARSF,-86.762889,,,,1380 LISCHEY AVE,LISCHEY AVE & MARIE ST SB,0,LISMARSF,
36.195483,,LEBBONNN,-86.621651,,,,LEBANON PK & BONNA SPRING DR,LEBANON PIKE & BONNA SPRING DR NB,0,LEBBONNN,
36.170207,,SHE17SEN,-86.74041,,,,,SHELBY AVE & S 17TH ST EB,0,SHE17SEN,
36.153711,,HERFAIEF,-86.755372,,,,,HERMITAGE AVE & FAIRFIELD AVE EB,0,HERFAIEF,
36.173766,,COCDBTWN,-86.808214,,,,COCKRILL ST & DR D B TODD JR BV,COCKRILL ST & DR DB TODD JR BLVD WB,0,COCDBTWN,
36.182529,,CAMCOUNN,-86.847711,,,,CAMILLA CALDWELL LN & COUNTY HOSPITAL RD,CAMILLA CALDWELL LN & COUNTY HOSPIT,0,CAMCOUNN,
36.115166,,GRABATNN,-86.79194,,,,GRANNY WHITE PK & BATTLEFIELD DR,GRANNY WHITE PIKE & BATTLEFIELD DR,0,GRABATNN,
36.507216,,SPFD1,-86.886086,,,,,SPRINGFIELD D/T P & R,0,SPFD1,
36.483692,,SPFD2,-86.887631,,,,,SPRINGFIELD WAL MART P & R,0,SPFD2,
36.161785,1,ALBALAWM,-86.835907,,,,1068 ALBION ST & ALAMEDA ST,ALBION ST & ALAMEDA AVE WB,0,ALBALAWM,
36.153661,0,11ALAUSF,-86.784135,,,,279 11TH AVE & LAUREL ST,11TH AVE & LAUREL ST SB,0,11ALAUSF,
36.203505,,ANDRVWNN,-86.606656,,,,ANDREW JACKSON PW & RACHELS VIEW,ANDREW JACKSON PKWY & RACHELS VIEW NB,0,ANDRVWNN,
36.083418,,LINWALEN,-86.704722,,,,LINBAR DR & LARGO DR,LINBAR DR & WALLACE RD,0,LINWALEN,
36.154046,0,HERFAIWF,-86.756457,,,,,HERMITAGE AVE & FAIRFIELD AVE WB,0,HERFAIWF,
36.199911,,GREMAIEM,-86.803637,,,,,GREAT CIRCLE RD & MAINSTREAM DR EB,0,GREMAIEM,
36.134037,1,12AACLSN,-86.788948,,,,1905 S 12TH AVE & ACKLEN AVE,12TH AVE S & ACKLEN AVE SB,0,12AACLSN,
36.144206,0,ELMTWIWF,-86.738218,,,,976 ELM HILL PIKE & TWIN ELMS CT,ELM HILL PIKE & TWIN ELMS CT WB,0,ELMTWIWF,
36.125943,0,HARKENEN,-86.84608,,,,4366 HARDING PIKE & KENNER AVE,WEST END AVE & HARDING PIKE EB,0,HARKENEN,
36.216494,,SILOLD,-86.789656,,,,,SILAS DR & OLD MATTHEWS RD SB,0,SILOLD,
36.158874,1,CXO17AVE,-86.798114,,,,CHARLOTTE AV & 17TH AV N,17TH AVE STATION OUTBOUND,0,CXO17AVE,
36.252894,0,GALEMMNN,-86.71689,,,,,GALLATIN PIKE & EMMITT AVE NB,0,GALEMMNN,
36.07497,,SAWPLASM,-86.946076,,,,,SAWYER BROWN RD & PLANTATION CT SB,0,SAWPLASM,
36.191684,,DICRICNN,-86.772668,,,,DICKERSON PK & RICHARDSON AV,DICKERSON PIKE & RICHARDSON AVE NB,0,DICRICNN,
36.163744,,21AHERSN,-86.808549,,,,,21ST AVE & HERMOSA ST SB,0,21AHERSN,
36.149861,,28APARSF,-86.817851,,,,,28TH AVE & PARK PLZ SB,0,28APARSF,
36.144663,0,WHIBURNN,-86.857809,,,,WHITEBRIDGE RD & BURGESS AVE,WHITE BRIDGE PIKE & BURGESS AVE NB,0,WHIBURNN,
36.179433,1,GXOFIVEF,-86.750111,,,,158 GALLATIN AVE,FIVE POINTS STATION OUTBOUND,0,GXOFIVEF,
36.239673,0,VAISPEEM,-86.768103,,,,VAILVIEW DR & OAKVIEW DR,VAILVIEW DR & SPEARS RD EB,0,VAISPEEM,
36.203663,1,GXIEHILF,-86.738539,,,,,EAST HILL STATION INBOUND,0,GXIEHILF,
36.221328,,DICPINSN,-86.761926,,,,DICKERSON PK & PINE RIDGE DR,DICKERSON PIKE & PINE RIDGE DR SB,0,DICPINSN,
36.167813,,JEFTEMWN,-86.820382,,,,,JEFFERSON ST & ED TEMPLE BLVD WB,0,JEFTEMWN,
36.121691,0,BRABERNM,-86.765483,,,,2605 BRANSFORD AVE,BRANSFORD AVE & BERRY RD NB,0,BRABERNM,
36.161813,,ALBALAEN,-86.835546,,,,PRESIOR DR & PRESLOR DR,ALBION ST & ALAMEDA AVE EB,0,ALBALAEN,
36.111281,,HILGRASN,-86.811431,,,,,HILLSBORO PIKE & GRAYBAR LN SB,0,HILGRASN,
36.132647,0,WALRAIEF,-86.763788,,,,474 WALSH RD,WALSH & RAINS EB (GEODIS),0,WALRAIEF,
36.267449,,MAYDUPSN,-86.695156,,,,,MAY DR & N. DUPONT AVE SB,0,MAYDUPSN,
36.059938,0,BELHHIWF,-86.640929,,,,704 BELL RD,BELL RD & HICKORY HIGHLANDS DR WB,0,BELHHIWF,
36.135345,0,21AACKSF,-86.801115,,,,21ST AV S & ACKLEN AV,21ST AVE S & ACKLEN AVE SB,0,21AACKSF,
36.167968,,JON29AWF,-86.821943,,,,,JOHN A MERRITT BLVD & 29TH AVE WB,0,JON29AWF,
36.204656,,LEBBELSF,-86.614804,,,,,LEBANON PIKE & BELINDA DR SB,0,LEBBELSF,
36.086253,1,NOLELYSN,-86.729671,,,,NOLENSVILLE & ELYSIAN FIELDS,ELYSIAN FIELDS STATION OUTBOUND,0,NOLELYSN,
36.155912,,HERMIDSN,-86.767211,,,,,HERMITAGE AVE & MIDDLETON ST SB,0,HERMIDSN,
36.077373,1,H70FOREM,-86.912033,,,,,HWY 70 & FOREST PARK APARTMENTS EB,0,H70FOREM,
36.150717,,MASMAPWF,-86.709254,,,,,MASSMAN DR & MAPLELEAF DR WB,0,MASMAPWF,
36.098669,,MURHAREN,-86.659698,,,,MURFREESBORO & TOWN PARK DR,MURFREESBORO PIKE & HARDING PL EB,0,MURHAREN,
36.161991,0,BRO2AWN,-86.775075,,,,BROADWAY & 2ND AV N,BROADWAY AVE & 2ND AVE N WB,0,BRO2AWN,
36.158394,0,BRO9AWF,-86.783577,,,,BROADWAY & 10TH AV N,BROADWAY AVE & 9TH AVE S WB,0,BRO9AWF,
36.151668,0,ELMROYEN,-86.677224,,,,,ELM HILL PIKE & ROYAL PKWY EB,0,ELMROYEN,
36.131479,0,BRABENSF,-86.768385,,,,,BRANSFORD AVE & BENTON AVE SB,0,BRABENSF,
36.152821,1,CXOSYLHE,-86.828059,,,,3572 CHARLOTTE AVE & 37TH AVE,37TH AVE/SYLVAN HEIGHTS STATION OUTBOUND,0,CXOSYLHE,
36.132889,0,WALRAIWN,-86.764667,,,,492 WALSH RD & WILSON DR,WALSH & RAINS WB (GEODIS),0,WALRAIWN,
36.150495,,ELMWANWN,-86.696659,,,,ELM HILL PK & WANDA DR,ELM HILL PIKE & WANDA DR WB,0,ELMWANWN,
36.150845,0,ELMWANWM,-86.69316,,,,2142 ELM HILL PIKE & SANBORN DR,ELM HILL PIKE & WANDA DR WB,0,ELMWANWM,
36.180536,,BUC10AWM,-86.802572,,,,BUCHANAN ST & 10TH AV N,BUCHANAN ST & 10TH AVE N WB,0,BUC10AWM,
36.161197,0,MLKIN,-86.80018,,,,1702 JO JOHNSTON AVE & 17TH AVE,MARTIN LUTHER KING SCHOOL IB,0,MLKIN,
36.076513,,NOLEDMSF,-86.725543,,,,4201 NOLENSVILLE PIKE & EDMONSON/WALLCE,NOLENSVILLE PIKE & EDMONSON PIKE SB,0,NOLEDMSF,
36.167788,0,SHE5SWN,-86.761976,,,,517 SHELBY AVE & 5TH ST S,SHELBY AVE & S 5TH ST WB,0,SHE5SWN,
36.051442,,OCANOLEN,-86.714537,,,,,OCALA DR & NOLENSVILLE PIKE EB,0,OCANOLEN,
36.158492,,CLI34AEN,-86.827075,,,,CLIFTON AV & 34TH AV N,CLIFTON AVE & 34TH AVE N EB,0,CLI34AEN,
36.18414,,CLA23AEN,-86.814736,,,,,CLARKSVILLE PIKE & 23RD AVE N EB,0,CLA23AEN,
36.216539,,OLDSIL,-86.789405,,,,,OLD MATTHEWS RD & SILAS DR NB,0,OLDSIL,
36.221122,1,REVWHIWF,-86.805488,,,,540 REVELS DR,REVELS DR & WHITES CREEK PK WB,0,REVWHIWF,
36.152325,,28ACITNN,-86.818473,,,,,28TH AVE N & CITY BLVD NB,0,28ACITNN,
36.109932,0,POWBRASF,-86.766778,,,,,POWELL AVE & BRANSFORD AVE SB,0,POWBRASF,
36.164228,0,PEARL,-86.815995,,,,,PEARL COHN,0,PEARL,
36.145617,,ELMAIRWF,-86.706264,,,,,ELM HILL PIKE & AIR LANE DR WB,0,ELMAIRWF,
36.110678,,POWBRASN,-86.767185,,,,,POWELL AVE & BRANSFORD AVE,0,POWBRASN,
36.090045,1,NXINVZOO,-86.733393,,,,NOLENSVILLE PK & ZOO RD,NASHVILLE ZOO STATION INBOUND,0,NXINVZOO,
36.153558,,HERDECEN,-86.753688,,,,,HERMITAGE AVE & DECATUR ST EB,0,HERDECEN,
36.272629,,ANDMAYWN,-86.69449,,,,,ANDERSON RD & MAY DR WB,0,ANDMAYWN,
36.177876,,3AMONSN,-86.786595,,,,3RD AV N & MONROE ST,3RD AVE N & MONROE ST SB,0,3AMONSN,
36.188321,,DOW25AEN,-86.816946,,,,,DOWLAN ST & 25TH AVE EB,0,DOW25AEN,
36.160713,0,51ATENNN,-86.84895,,,,TENNESSEE & 51 AVE,51ST AVE N & TENNESSEE AVE NB,0,51ATENNN,
36.178655,,ARTJANNF,-86.802692,,,,,ARTHUR AVE & JANE ST NB,0,ARTJANNF,
36.152723,0,8ADRENN,-86.779259,,,,8TH AV S & DREXEL ST,8TH AVE S & DREXELL ST NB,0,8ADRENN,
36.170314,,SHE17SWN,-86.740096,,,,,SHELBY AVE & S 17TH ST WB,0,SHE17SWN,
36.188429,,LISVERNN,-86.764075,,,,,LISCHEY AVE & VERNON WINFREY AVE NB,0,LISVERNN,
36.12719,,THOGOOEN,-86.700762,,,,,THOMPSON PL & GOODBAR DR EB,0,THOGOOEN,
36.220147,0,KINMEAEN,-86.825067,,,,,KINGS LN & MEADOW HILL DR EB,0,KINMEAEN,
36.182449,,CAMCOUSF,-86.847812,,,,,CAMILLA CALDWELL LN & COUNTY HOSPITAL RD SB,0,CAMCOUSF,
36.102172,0,SHALONWN,-86.808761,,,,1888 SHACKLEFORD RD & LONE OAK RD,SHACKLEFORD RD & LONE OAK RD WB,0,SHALONWN,
36.197588,,ANDTYLSN,-86.608678,,,,ANDREW JACKSON PW & RACHELS VIEW,ANDREW JACKSON PKWY & TYLER DR SB,0,ANDTYLSN,
36.182324,,16SSTRSN,-86.741177,,,,N 16TH ST & PORTER RD,N 16TH ST & STRATTON AVE SB,0,16SSTRSN,
36.190971,0,HYDMANNN,-86.838573,,,,,HYDES FERRY RD & MANCHESTER AVE NB,0,HYDMANNN,
36.144947,1,CXIAMERI,-86.871962,,,,6315 CHARLOTTE PIKE,AMERICAN STATION INBOUND,0,CXIAMERI,
36.199384,0,MCSMJ,-86.517,,,,,MT. JULIET STATION,0,MCSMJ,
36.228731,0,GALBROSF,-86.725305,,,,4556 GALLATIN PIKE & BROADMOOR DR,GALLATIN PIKE & BROADMOOR SB,0,GALBROSF,
36.238919,0,WALGALWF,-86.724334,,,,200 WALTON LN & RAMP,WALTON LANE & GALLATIN PIKE WB,0,WALGALWF,
36.19922,,MAIGRAEN,-86.80876,,,,,MAINSTREAM DR & GREAT CIRCLE RD EB,0,MAIGRAEN,
36.201481,,LEBTYLSN,-86.617733,,,,,LEBANON PIKE & TYLER DR S,0,LEBTYLSN,
36.231823,,EWICLAEN,-86.801777,,,,EWING DR & CLAYMILLE BV,EWING DR & CLAYMILLE BLVD EB,0,EWICLAEN,
36.179003,,11AWHESN,-86.803879,,,,,11TH AVE N & WHEELESS ST SB,0,11AWHESN,
36.217623,,HARBENWF,-86.743784,,,,,HART LANE & BEN ALLEN RD WB,0,HARBENWF,
36.077513,2,OLDBELNF,-86.919895,,,,OLD HICKORY BLVD & BELLE FOREST CIR,OLD HICKORY & BELLE FOREST CIR NB,0,OLDBELNF,
36.113067,0,BRAHEANF,-86.766875,,,,,BRANSFORD AVE & HEATHER PL NB,0,BRAHEANF,
36.125424,0,21AWOOSN,-86.805563,,,,21ST AV S & WOODLAWN DR,21ST AVE S & WOODLAWN DR SB,0,21AWOOSN,
36.248708,0,WDUSAUWF,-86.729007,,,,414 W DUE WEST AVE & SAUNDERS AVE,W DUE WEST AVE & SAUNDERS AVE WB,0,WDUSAUWF,
36.142642,,ROSEPARK,-86.780897,,,,,ROSE PARK MAGNET SCHOOL,0,ROSEPARK,
36.165766,0,ALB21AEF,-86.80866,,,,ALBION ST & 21ST AV N,ALBION ST & 21ST AVE N EB,0,ALB21AEF,
36.194026,0,JOHMANNN,-86.836017,,,,N HYDES FERRY RD & MANCHESTER AV,JOHN MALLETTE DR & MANCHESTER AVE E,0,JOHMANNN,
36.168641,,LEBMUNEN,-86.656204,,,,LEBANON PK & MUNN LN,LEBANON PIKE & MUNN LN EB,0,LEBMUNEN,
36.074956,,NOLFLONN,-86.724751,,,,,NOLENSVILLE PIKE & FLORA MAXWELL RD,0,NOLFLONN,
36.061867,,NOLMCMSN,-86.716904,,,,,NOLENSVILLE PIKE & MCMURRAY DR SB,0,NOLMCMSN,
36.021879,,MURCITEN,-86.582799,,,,,MURFREESBORO PIKE & CITY HALL EB,0,MURCITEN,
36.23144,,EWIVISEN,-86.795793,,,,,EWING DR & VISTA LN EB,0,EWIVISEN,
36.193121,,GREVANEN,-86.791202,,,,,GREAT CIRCLE RD & VANTAGE WAY EB,0,GREVANEN,
36.168252,0,SHE6STEN,-86.760367,,,,595 SHELBY AVE & 6TH ST S,SHELBY AVE & S 6TH ST EB,0,SHE6STEN,
36.180437,,BUC9AEN,-86.802526,,,,,BUCHANAN ST & 9TH AVE N EB,0,BUC9AEN,
36.246686,,MORBRISN,-86.773049,,,,,MOOREWOOD DR & BRICKMONT CT SB,0,MORBRISN,
36.161575,,28AHERNN,-86.819214,,,,,28TH AVE N & HERMAN ST NB,0,28AHERNN,
36.148685,1,WES23AEN,-86.804611,,,,WEST END AV & 23RD AV N,WEST END AVE & 23RD AVE S EB,0,WES23AEN,
36.230495,0,RICEWISM,-86.773861,,,,3033 RICHMOND HILL DR & EWING DR,RICHMOND HILL DR & EWING DR SB,0,RICEWISM,
36.190265,1,10APONNN,-86.806063,,,,2292 9TH AVE & 10TH AVE,10TH AVE N & PONDER PL NB,0,10APONNN,
36.225895,0,GXOINGLN,-86.725352,,,,4338 GALLATIN PIKE & CALVERT ST,INGLEWOOD STATION OUTBOUND,0,GXOINGLN,
36.150067,,8ADIVSN,-86.779301,,,,,8TH AVE S & DIVISION ST SB,0,8ADIVSN,
36.188494,0,LEBHICSN,-86.629154,,,,,LEBANON PIKE & HICKORY HILL LN SB,0,LEBHICSN,
36.271947,,ARCANDNN,-86.687387,,,,,ARCHWOOD DR & ANDERSON LN NB,0,ARCANDNN,
36.068821,,TODBELEN,-86.941555,,,,TODD PREIS DR & BELLEVUE RD,TODD PRIES DR & BELLEVUE RD EB,0,TODBELEN,
36.120327,1,NXIPCHTR,-86.749782,,,,US HWY 31 ALT & NEWSOM ST,PEACHTREE STATION INBOUND,0,NXIPCHTR,
36.213771,,WHIFRANN,-86.799842,,,,WHITES CREEK PK & FRANCIS ST,WHITES CREEK PIKE & FRANCIS ST NB,0,WHIFRANN,
36.184747,,CLA24ANN,-86.815544,,,,CLARKSVILLE PK & 24TH AV N,CLARKSVILLE PIKE & 24TH AVE N NB,0,CLA24ANN,
36.178888,1,ROSHUMSN,-86.795338,,,,50 ROSA PARKS BLVD,ROSA PARKS BLVD & HUME ST SB,0,ROSHUMSN,
36.178282,,25ADELNN,-86.816675,,,,25TH AV N & DELK AV,25TH AVE N & DELK AVE NB,0,25ADELNN,
36.164714,0,CHA7AEN,-86.784416,,,,,CHARLOTTE AVE & 7TH AVE N EB,0,CHA7AEN,
36.167145,0,JOH33AEF,-86.826597,,,,JOHN A MERRITT BV & SCHRADER ACRES DR,JOHN MERRITT & 33 AVE,0,JOH33AEF,
36.21883,0,ROWCRONN,-86.817947,,,,766 ROWAN DR & CROUCH DR,ROWAN DR & CROUCH DR NB,0,ROWCRONN,
36.133808,,GLAMASSN,-86.702296,,,,,GLASTONBURY RD & MASSMAN DR SB,0,GLAMASSN,
36.066634,0,NOLNORNN,-86.717764,,,,,NOLENSVILLE PIKE & NORTHCREST DR NB,0,NOLNORNN,
36.183095,0,3AGARNN,-86.789823,,,,3RD AV N & GARFIELD ST,3RD AVE N & GARFIELD ST NB,0,3AGARNN,
36.218661,,KINCLAW,-86.83646,,,,KINGS LN & PEWITT RD,KINGS LN & CLARKSVILLE PK WB,0,KINCLAW,
36.15189,0,FAICLIE,-86.760889,,,,FAIN ST & UNKNOWN AL,FAIN ST & CLAIBORNE ST EB,0,FAICLIE,
36.133821,0,WHIVINNF,-86.858048,,,,113 WHITE BRIDGE PIKE,WHITE BRIDGE PIKE & VINERIDGE DR NB,0,WHIVINNF,
36.084661,0,HWYPEREN,-86.894509,,,,HIGHWAY 70 S & 5TH AV N,HWY 70 S & PERCY WARNER BLVD EB,0,HWYPEREN,
36.217862,0,DICLORNF,-86.762922,,,,DICKERSON PK & LORRAINE AV,DICKERSON PIKE & LORRAINE AVE NB,0,DICLORNF,
36.155939,1,CXOCENTE,-86.809465,,,,2274 CHARLOTTE AVE & 23RD AVE,23RD AVE / CENTENNIAL STATION OUTBOUND,0,CXOCENTE,
36.125596,,12ACARSF,-86.789441,,,,,12TH AVE & CARUTHERS AVE SB,0,12ACARSF,
36.100465,0,HARPAGSN,-86.871159,,,,,HARDING PIKE & PAGE RD SB,0,HARPAGSN,
36.147202,,WES25AWN,-86.808104,,,,WEST END AV & 25TH AV S,WEST END AVE & 25TH AVE S WB,0,WES25AWN,
36.153209,,HERLITEN,-86.749504,,,,,HERMITAGE AVE & LITTLE GREEN ST EB,0,HERLITEN,
36.153405,1,MXOFULTN,-86.772328,,,,,FULTON STATION OUTBOUND,0,MXOFULTN,
36.161082,,TEN49AWN,-86.846414,,,,TENNESSEE AV & 49TH AV NORTH,TENNESSEE AVE & 49TH AVE N WB,0,TEN49AWN,
36.07566,2,H70BELWF,-86.940641,,,,7449 USHY 70S & BELLEVUE RD,HWY 70S & BELLEVUE RD WB,0,H70BELWF,
36.166554,1,MCC5_12,-86.781973,,,MTAMCC,UNNAMED & 5TH AVE N,CENTRAL 5TH AVE - BAY 12,0,MCC5_12,
36.16659,1,MCC5_11,-86.781996,,,MTAMCC,MCC - BAY 11 & 5TH AVE N,CENTRAL 5TH AVE - BAY 11,0,MCC5_11,
36.16667,1,MCC5_10,-86.78167,,,MTAMCC,UNNAMED & 5TH AVE N,CENTRAL 5TH AVE - BAY 10,0,MCC5_10,
36.168599,0,HER10AEN,-86.792855,,,,HERMAN ST & WARREN ST,HERMAN ST & 10TH AVE N EB,0,HER10AEN,
36.17701,0,SPR1SWN,-86.774366,,,,,SPRING ST & N 1ST ST WB,0,SPR1SWN,
36.119425,,FRABERNF,-86.774642,,,,,FRANKLIN PK & BERRY RD NB,0,FRABERNF,
36.243538,0,BRIWORNF,-86.736359,,,,,BRIARVILLE RD & WORTH ST NB,0,BRIWORNF,
36.208022,,LEBHIGNF,-86.611178,,,,LEBANON PK & HIGHLAND VIEW,LEBANON PIKE & HIGHLAND VIEW DR NB,0,LEBHIGNF,
36.170981,0,JEF14TWM,-86.800988,,,,JEFFERSON & 14 AVE,JEFFERSON ST & 14TH AVE N WB,0,JEF14TWM,
36.151248,1,WES20AEN,-86.799394,,,,,WEST END AVE & 20TH AVE S EB,0,WES20AEN,
36.152481,,LAF5AEN,-86.773315,,,,LAFAYETTE ST & 5TH AV S,GREYHOUND STATION - LAFAYETTE ST & 5TH AVE S,0,LAF5AEN,
36.081356,,WALLINNN,-86.702265,,,,,WALLACE RD & LINBAR DR NB,0,WALLINNN,
36.17411,1,2AVJUNSF,-86.782895,,,,2ND AV N & JACKSON ST,2ND AVE N & JUNIOR GILLIAM WAY SB,0,2AVJUNSF,
36.160984,,TEN49AEN,-86.846571,,,,,TENNESSEE AVE & 49TH AVE N EB,0,TEN49AEN,
36.173126,0,JEF9AWN,-86.792339,,,,,JEFFERSON ST & 9TH AVE N WB,0,JEF9AWN,
36.187276,,CLAEDSM,-86.820545,,,,,CLARKSVILLE PIKE & ED TEMPLE BLVD S,0,CLAEDSM,
36.25148,,NEETAHEN,-86.691662,,,,,NEELYS BEND RD & TAHLENA AVE EB,0,NEETAHEN,
36.24719,1,VILBRIEM,-86.777231,,,,3609 VILLAGE TRL & MOONLIGHT DR,VILLAGE TRL & BRICK CHURCH PIKE EB,0,VILBRIEM,
36.141554,1,MXIFOSTE,-86.740261,,,,,FOSTER STATION INBOUND,0,MXIFOSTE,
36.167831,0,JEF27AEN,-86.818921,,,,2646 JEFFERSON ST & 27TH AVE,JEFFERSON ST & 27TH AVE EB,0,JEF27AEN,
36.182943,0,EASBENWN,-86.738759,,,,1705 EASTLAND AVE & 17TH ST N,EASTLAND AVE & BENSON ST WB,0,EASBENWN,
36.178845,1,ROSHUMNN,-86.795014,,,,1400 ROSA PARKS BLVD,ROSA PARKS BLVD & HUME ST NB,0,ROSHUMNN,
36.212166,,TIMFAISN,-86.844784,,,,,TIMOTHY DR & FAIRVIEW DR SB,0,TIMFAISN,
36.279747,0,GXOEDGEF,-86.708554,,,,,EDGEMEADE STATION OUTBOUND,0,GXOEDGEF,
36.141838,,EDG10AEN,-86.78351,,,,,EDGEHILL AVE & 10TH AVE S EB,0,EDG10AEN,
36.15508,0,HERLINWF,-86.763995,,,,,HERMITAGE AVE & LINDSLEY AVE WB,0,HERLINWF,
36.26279,0,OLD4AVWF,-86.705695,,,,,OLD HICKORYBLVD  & 4TH AVE EB,0,OLD4AVWF,
36.208433,0,WHITONSN,-86.793774,,,,2209 WHITES CREEK PIKE & TONEY RD,WHITES CREEK PIKE & TONEY RD SB,0,WHITONSN,
36.094568,,H70BROSN,-86.881598,,,,HIGHWAY 70 S & BROOK HOLLOW RD,HWY 70 S & BROOK HOLLOW RD WB,0,H70BROSN,
36.179972,,MERTRUNN,-86.769035,,,,,MERIDIAN ST & TRUETLAN ST NB,0,MERTRUNN,
36.045751,0,HICOLDNF,-86.716874,,,,5784 HICKORY PLAZA DR,HICKORY PLAZA DR & OLD HICKORY BLVD,0,HICOLDNF,
36.131361,,8AVDOUSF,-86.778931,,,,8TH AV S & S DOUGLAS AV,8TH AVE & DOUGLAS AVE SB,0,8AVDOUSF,
36.176888,,LEBWEWN,-86.645588,,,,,LEBANON PIKE & WEELINGTON SQ SB,0,LEBWEWN,
36.167648,0,LEBDONWN,-86.662889,,,,2778 LEBANON PIKE & DONELSON PIKE,LEBANON PIKE & DONELSON PIKE WB,0,LEBDONWN,
36.075258,0,H70BELEF,-86.939905,,,,7437 USHY 70S,HWY 70S & BELLEVUE RD EB,0,H70BELEF,
36.182778,,EASSETEN,-86.738046,,,,,EASTLAND AVE & SETLIFF PL EB,0,EASSETEN,
36.123872,,12ASWENF,-86.789755,,,,12TH AV S & SWEETBRIAR AV,12TH AVE S & SWEETBRIAR AVE NB,0,12ASWENF,
36.234415,0,RICVAIWN,-86.774882,,,,,RICHMOND HILLS DR & VAILVIEW DR WB,0,RICVAIWN,
36.16183,2,HER27AEN,-86.81791,,,,2724 HERMAN ST & 27TH AVE,HERMAN ST & 27TH AVE N EB,0,HER27AEN,
36.079608,0,COLDAVPR,-86.955657,,,,EXIT 196 & RAMP,COLEY DAVIS RD SHELTER PARK-N-RIDE,0,COLDAVPR,
36.188823,,LEBHICNM,-86.628212,,,,LEBANON PK & HICKORY HILL,LEBANON PIKE & HICKORY HILL LN NB,0,LEBHICNM,
36.145741,0,CHE2AWF,-86.764971,,,,CHESTNUT ST & UNKNOWN AL,CHESTNUT ST & 2ND AVE S WB,0,CHE2AWF,
36.061987,0,BELHICNM,-86.638081,,,,640 BELL RD,BELL RD & HICKORY HIGHLANDS NB,0,BELHICNM,
36.141543,,8ACHENN,-86.778565,,,,US HWY 31 & 8TH AVE S,8TH AVE S & CHESTNUT ST NB,0,8ACHENN,
36.142163,,NXIHART,-86.762307,,,,US HWY 31 ALT & US HWY 41 ALT,HART STATION INBOUND,0,NXIHART,
36.190647,1,GALGRENN,-86.745313,,,,GALLATIN AV & W GREENWOOD AV,GALLATIN PIKE & GREENWOOD AVE NB,0,GALGRENN,
36.076775,0,MURDOVSF,-86.641112,,,,MURFREESBORO & DOVERBLE,MURFREESBORO PIKE & DOVER GLEN DR S,0,MURDOVSF,
36.174022,0,OLDCENNF,-86.602117,,,,5680 OLD HICKORY BLVD & CENTRAL PIKE,OLD HICKORY BLVD & CENTRAL PIKE NB,0,OLDCENNF,
36.295703,0,GXIMYASF,-86.700551,,,,,MYATT STATION INBOUND,0,GXIMYASF,
36.188076,,CLAEDTSN,-86.821874,,,,CLARKSVILLE PK & ED TEMPLE BV,CLARKSVILLE PIKE & ED TEMPLE BLVD S,0,CLAEDTSN,
36.045659,0,NOLOLDSN,-86.713452,,,,5787 NOLENSVILLE PIKE & OLD HICKORY BLVD,NOLENSVILLE PIKE & OLD HICKORY BLVD,0,NOLOLDSN,
36.076334,1,H70CHIEF,-86.915073,,,,7003 USHY 70S,HWY 70 S & CHIMNEY HILL EB,0,H70CHIEF,
36.137287,,WED19AEN,-86.798379,,,,WEDGEWOOD & 19 AVE,WEDGEWOOD AVE & 19TH AVE S EB,0,WED19AEN,
36.11461,0,HILWOONM,-86.810695,,,,,HILLSBORO PIKE & WOODMONT BLVD NB,0,HILWOONM,
36.105156,,HARLEANN,-86.868423,,,,HARDING PK & 7TH AV N,HARDING PIKE & LEAKE AVE NB,0,HARLEANN,
36.212173,,WHATUCWM,-86.827959,,,,,W HAMILTON RD & TUCKER RD WB,0,WHATUCWM,
36.141666,0,CHE8AAEF,-86.778257,,,,EDGEHILL AV & 8TH,CHESTNUT ST & 8TH AVE S EB,0,CHE8AAEF,
36.13434,1,MXOPLUSP,-86.723268,,,,,PLUS PARK STATION OUTBOUND,0,MXOPLUSP,
36.295411,0,GXOMYANN,-86.700358,,,,,MYATT STATION OUTBOUND,0,GXOMYANN,
36.206528,,WTRBRIEN,-86.778276,,,,W TRINITY LN & BRICK CHURCH PK,W TRINITY LN & BRICK CHURCH PIKE,0,WTRBRIEN,
36.110613,,POWTHONN,-86.766894,,,,,POWELL AVE & THOMPSON LN NB,0,POWTHONN,
36.126148,,BRACRASN,-86.766278,,,,,BRANSFORD AVE & CRAIGHEAD ST SB,0,BRACRASN,
36.152286,1,CXORICHL,-86.842032,,,,4582 CHARLOTTE AVE & 46TH AVE,46TH AVE/RICHLAND PARK STATION OUTBOUND,0,CXORICHL,
36.237078,0,MOOCRISN,-86.773387,,,,,MOOREWOOD DR & CRISLYNNDALE DR SB,0,MOOCRISN,
36.153391,0,BRO17AWN,-86.793952,,,,1692 BROADWAY AVE & 17TH AVE,BROADWAY AVE & 17TH AVE S WB,0,BRO17AWN,
36.133947,,MASGLANF,-86.702625,,,,,MASSMAN DR & GLASTONBURY DR NB,0,MASGLANF,
36.164781,0,32AALAEF,-86.825204,,,,1087 32ND AVE & ALAMEDA ST,32ND AVE N & ALAMEDA ST,0,32AALAEF,
36.212085,,MCSLB,-86.29724,,,,,LEBANON STATION,0,MCSLB,
36.148469,0,NXOOAKST,-86.769085,,,,4TH AV S & OAK ST,OAK STATION OUTBOUND,0,NXOOAKST,
36.180139,0,BUC22AEF,-86.813724,,,,2204 BUCHANAN ST,BUCHANAN ST & 22ND AVE N EB,0,BUC22AEF,
36.159882,,40APRESF,-86.835354,,,,40TH AV N & PRESLOR DR,40TH AVE N & PRESTON TAYLOR PL SB,0,40APRESF,
36.093821,0,NXOMCNLY,-86.736616,,,,NOLENSVILLE & MCNALLY,MCNALLY STATION OUTBOUND,0,NXOMCNLY,
36.180247,,BUC23AWN,-86.814398,,,,BUCHANAN ST & 23RD AV N,BUCHANAN ST & 23RD AVE N WB,0,BUC23AWN,
36.268507,0,BELDICWF,-86.756811,,,,1014 BELL GRIMES LN,BELL GRIMES LN & DICKERSON PIKE WB,0,BELDICWF,
36.104484,0,RICLONWF,-86.809306,,,,1984 RICHARD JONES RD & HILLMONT DR,RICHARD JONES & LONE OAK RD WB,0,RICLONWF,
36.16954,0,LEBMCGEM,-86.677259,,,,,LEBANON PIKE & MCGAVOCK PK EB,0,LEBMCGEM,
36.169355,0,LEBMCGEF,-86.67936,,,,2512 LEBANON PIKE & MCGAVOCK PIKE,LEBANON PIKE & MCGAVOCK PK EB,0,LEBMCGEF,
36.192457,0,FREVANNM,-86.79649,,,,FRENCH LANDING DR & STATE HWY 6,FRENCH LANDING DR & VANTAGE WAY NB,0,FREVANNM,
36.235422,0,VAIBRIEF,-86.772989,,,,,VAILVIEW DR & BRICKDALE LN EB,0,VAIBRIEF,
36.197895,,LEBOLDNN,-86.620409,,,,LEBANON PK & OLD HICKORY BLVD,LEBANON PIKE & OLD HICKORY BLVD NB,0,LEBOLDNN,
36.236609,0,VAIBRIEM,-86.77118,,,,3235 VAILVIEW DR,VAILVIEW DR & BRICKDALE LN EB,0,VAIBRIEM,
36.172525,,JEF10AWN,-86.794592,,,,JEFFERSON & 10 AVE,JEFFERSON ST & 10TH AVE N WB,0,JEF10AWN,
36.153527,1,MXIFULTN,-86.769698,,,,2ND AV S & ASH ST,FULTON STATION INBOUND,0,MXIFULTN,
36.169793,,DBTJEFNF,-86.806698,,,,,DR DB TODD JR BLVD & JEFFERSON ST N,0,DBTJEFNF,
36.053564,,NOLBRENN,-86.714792,,,,US HWY 31 ALT & BREWER DR,NOLENSVILLE PIKE & BREWER DR NB,0,NOLBRENN,
36.205337,,JONTRISN,-86.757676,,,,,JONES AVE & E TRINITY LN SB,0,JONTRISN,
36.119019,,ETHCURNF,-86.718415,,,,,E THOMPSON LN & CURREY RD NB,0,ETHCURNF,
36.169353,,LEBMCGWF,-86.680458,,,,,LEBANON PIKE & MCGAVOCK PK WB,0,LEBMCGWF,
36.219487,0,GALARDNN,-86.727398,,,,GALLATIN PK & ARDEE AV,N GALLATIN PIKE & ARDEE AVE NB,0,GALARDNN,
36.125435,0,21AWOONF,-86.805294,,,,HILLSBORO & WOODLAWN,21ST AVE S & WOODLAWN DR NB,0,21AWOONF,
36.214284,0,GALGILSF,-86.730804,,,,1091 GILLOCK ST & GALLATIN PIKE,GALLATIN PIKE & GILOCK ST SB,0,GALGILSF,
36.138881,0,21ACAPSN,-86.800622,,,,21ST AV S & CAPERS AV,21ST AVE S & CAPERS AVE SB,0,21ACAPSN,
36.153941,1,WES17AWN,-86.794329,,,,WEST END AV & 17TH AV N,WEST END AVE & 17TH AVE S WB,0,WES17AWN,
36.12692,0,THOMURWN,-86.710293,,,,,THOMPSON PL & MURFREESBORO PK WB,0,THOMURWN,
36.203239,,CLAABESN,-86.840636,,,,CLARKSVILLE PK & ABERNATHY RD,CLARKSVILLE PIKE & ABERNATHY RD SB,0,CLAABESN,
36.175891,,DBTWHENN,-86.809247,,,,,DR DB TODD BLVD & WHELESS ST NB,0,DBTWHENN,
36.126515,2,THOMURWF,-86.711739,,,,207 THOMPSON LN E & RAMP,E THOMPSON & MURFREESBORO WB,0,THOMURWF,
36.107131,0,GRAEXCSM,-86.794446,,,,3841 GRANNY WHITE PIKE,GRANNY WHITE PK & EXCELLA PL MB,0,GRAEXCSM,
36.150921,0,CHACANSF,-86.762254,,,,,CHARLES E DAVIS BLVD & CANNON ST SB,0,CHACANSF,
36.191285,0,COUDOANN,-86.835779,,,,,COUNTY HOSPITAL RD & DOAK AVE NB,0,COUDOANN,
36.15081,0,21SWESSN,-86.801524,,,,21ST AV N & WEST END,21ST AVE S & WEST END AVE SB,0,21SWESSN,
36.169739,0,1SWOONM,-86.772489,,,,1ST ST S & MAIN ST,S 1ST ST & WOODLAND ST NB,0,1SWOONM,
36.0625,0,BELBELSF,-86.637948,,,,,BELL RD & BELL CREST DR SB,0,BELBELSF,
36.14194,,EDGHILEN,-86.781058,,,,EDGEHILL AV & 9TH AV S,EDGEHILL AVE & HILLSIDE AVE EB,0,EDGHILEN,
36.164472,0,DRDHERSN,-86.804654,,,,DR D B TODD JR & HERMOSA,DR DB TODD JR BLVD & HERMOSA ST SB,0,DRDHERSN,
36.180257,,BUC11AEN,-86.804974,,,,BUCHANAN & 11 AVE,BUCHANAN ST & 11TH AVE N EB,0,BUC11AEN,
36.137809,,BLA23AEN,-86.803167,,,,,BLAKEMORE AVE & 23RD AVE S EB,0,BLA23AEN,
36.132712,,MURWILWF,-86.719557,,,,,MURFREESBORO PIKE & WILHAGAN RD WB,0,MURWILWF,
35.847442,,OLDFORT,-86.410231,,,,,OLD FORT PARK AND RIDE,0,OLDFORT,
36.158825,,28ACLISN,-86.818629,,,,,28TH AVE N & CLIFTON AVE SB,0,28ACLISN,
36.207264,0,WHITRISN,-86.791943,,,,2032 WHITES CREEK PIKE & W TRINITY LN,WHITES CREEK PIKE & W TRINITY LN SB,0,WHITRISN,
36.126293,2,CHALILNF,-86.908729,,,,7136 CHARLOTTE PIKE,CHARLOTTE PIKE & LILY VALLEY WAY NB,0,CHALILNF,
36.086917,,HARMETWN,-86.695668,,,,,HARDING PL & METROPLEX DR WB,0,HARMETWN,
36.210362,1,GXIGREEF,-86.733625,,,,3407 GALLATIN PIKE & HOME RD,GREENFIELD STATION INBOUND,0,GXIGREEF,
36.194119,,ATHMETSM,-86.801301,,,,ATHENS WAY & METRO CENTER,ATHENS WAY & METROCENTER SB,0,ATHMETSM,
36.147399,,WHAPERSN,-86.762785,,,,,WHARF AVE & PERKINS ST SB,0,WHAPERSN,
36.138372,0,21ACHINN,-86.800622,,,,21ST AV S & CHILDRENS WY,21ST AVE S & CHILDRENS WAY NB,0,21ACHINN,
36.162189,,HER24TWN,-86.81178,,,,HERMAN & 24 AVE,HERMAN ST & 24TH AVE N WB,0,HER24TWN,
36.172277,0,JEF10AEN,-86.795009,,,,JEFFERSON & 10 AVE,JEFFERSON ST & 10TH AVE N EB,0,JEF10AEN,
36.183055,0,DICGRANN,-86.773789,,,,STATE HWY 11 & DICKERSON PIKE,DICKERSON PIKE & GRACE ST NB,0,DICGRANN,
36.077723,,WALSOUEN,-86.724153,,,,WALLACE RD & BROOKRIDGE TL,WALLACE RD & SOUTHERN HILLS EB,0,WALSOUEN,
36.150052,1,CXOWTBRG,-86.858652,,,,5626 CHARLOTTE PIKE & RAMP,WHITE BRIDGE STATION OUTBOUND,0,CXOWTBRG,
36.245951,0,BRICHENN,-86.779374,,,,3424 BRICK CHURCH PIKE & CHESAPEAKE DR,BRICK CHURCH PIKE & CHESAPEAKE DR N,0,BRICHENN,
36.224016,1,GXIINGF,-86.725718,,,,,INGLEWOOD STATION INBOUND,0,GXIINGF,
36.262388,,OHRIOVSW,-86.680929,,,,,OLD HICKORY BLVD PAST RIO VISTA WB,0,OHRIOVSW,
36.106591,1,NXIMORTN,-86.742863,,,,US HWY 31 ALT & MORTON AVE,MORTON STATION INBOUND,0,NXIMORTN,
36.050659,0,HICOCANN,-86.716055,,,,,HICKORY PLAZA DR & OCALA DR NB,0,HICOCANN,
36.21714,0,ROWBUESN,-86.819509,,,,ROWAN DR & BUENA VISTA PK,ROWAN DR & BUENA VISTA PIKE SB,0,ROWBUESN,
36.17978,0,GARDELNN,-86.798754,,,,9TH AVE & DELTA AVE,GARFIELD ST & DELTA AVE  NB,0,GARDELNN,
36.120711,,GRAKIRNN,-86.790472,,,,,GRANNY WHITE PIKE & KIRKWOOD AVE NB,0,GRAKIRNN,
